[
  {
    "id": 75757805,
    "name": "Apotheke zum Rebstock",
    "lat": 47.2409751,
    "lon": 8.7262277,
    "type": "Apotheke",
    "address": "Grundstrasse",
    "city": "Zürich",
    "phone": "",
    "website": "https://apothekezumrebstock.ch/"
  },
  {
    "id": 132405322,
    "name": "Amavita",
    "lat": 47.520987,
    "lon": 8.540215,
    "type": "Apotheke",
    "address": "Bahnhofstrasse",
    "city": "Zürich",
    "phone": "+41 58 878 14 60",
    "website": "https://www.amavita.ch/de/amavita-apotheke-sonnenhof"
  },
  {
    "id": 246249851,
    "name": "Medbase Apotheke Zentrum Töss",
    "lat": 47.4917575,
    "lon": 8.7060655,
    "type": "Apotheke",
    "address": "Zürcherstrasse",
    "city": "Zürich",
    "phone": "",
    "website": "https://www.topwell.ch/medbaseapothekewinterthurzentrum/"
  },
  {
    "id": 246249855,
    "name": "Adler-Apotheke",
    "lat": 47.4990282,
    "lon": 8.7242591,
    "type": "Apotheke",
    "address": "Untertor",
    "city": "Zürich",
    "phone": "",
    "website": ""
  },
  {
    "id": 262378047,
    "name": "Dropa Hottingen",
    "lat": 47.3697086,
    "lon": 8.5557788,
    "type": "Apotheke",
    "address": "Freiestrasse",
    "city": "Zürich",
    "phone": "",
    "website": "https://dropa.ch/standorte/dropa-apotheke-post-hottingen"
  },
  {
    "id": 268603397,
    "name": "Bellevue Apotheke",
    "lat": 47.3668025,
    "lon": 8.5461401,
    "type": "Apotheke",
    "address": "Theaterstrasse",
    "city": "Zürich",
    "phone": "",
    "website": ""
  },
  {
    "id": 269234979,
    "name": "Dropa Brunnen",
    "lat": 47.350967,
    "lon": 8.7206281,
    "type": "Apotheke",
    "address": "Brunnenstrasse",
    "city": "Zürich",
    "phone": "",
    "website": "https://dropa.ch/standorte/dropa-apotheke-brunnen"
  },
  {
    "id": 271223620,
    "name": "Balgrist Apotheke",
    "lat": 47.3546412,
    "lon": 8.5753312,
    "type": "Apotheke",
    "address": "Forchstrasse",
    "city": "Zürich",
    "phone": "+41 44 388 00 50",
    "website": "https://www.balgrist-apotheke.ch/"
  },
  {
    "id": 271225056,
    "name": "Hirslanden-Apotheke",
    "lat": 47.3604238,
    "lon": 8.5676494,
    "type": "Apotheke",
    "address": "Forchstrasse",
    "city": "Zürich",
    "phone": "",
    "website": ""
  },
  {
    "id": 272354353,
    "name": "Odeon Apotheke",
    "lat": 47.3676704,
    "lon": 8.545276,
    "type": "Apotheke",
    "address": "Limmatquai",
    "city": "Zürich",
    "phone": "",
    "website": "https://achillea.ch/standorte/odeon-apotheke"
  },
  {
    "id": 301815427,
    "name": "Berg-Apotheke by Medbase",
    "lat": 47.3731732,
    "lon": 8.5293204,
    "type": "Apotheke",
    "address": "Stauffacherstrasse",
    "city": "Zürich",
    "phone": "",
    "website": "https://www.medbase-apotheken.ch/apotheken/detail/berg-apotheke-by-medbase"
  },
  {
    "id": 301815428,
    "name": "Olympia Apotheke",
    "lat": 47.373683,
    "lon": 8.53089,
    "type": "Apotheke",
    "address": "Badenerstrasse",
    "city": "Zürich",
    "phone": "",
    "website": "https://www.olympia-apotheke.ch/"
  },
  {
    "id": 305707117,
    "name": "Apotheke Rosengarten",
    "lat": 47.4429955,
    "lon": 8.6308615,
    "type": "Apotheke",
    "address": "",
    "city": "Zürich",
    "phone": "",
    "website": ""
  },
  {
    "id": 307364393,
    "name": "Bachtel Apotheke",
    "lat": 47.5075362,
    "lon": 8.7115007,
    "type": "Apotheke",
    "address": "Wülflingerstrasse",
    "city": "Zürich",
    "phone": "+41 52 222 23 74",
    "website": "https://www.bachtel-apotheke.ch/"
  },
  {
    "id": 307494089,
    "name": "Paracelsus Apotheke",
    "lat": 47.2082665,
    "lon": 8.70671,
    "type": "Apotheke",
    "address": "Chrüzweg",
    "city": "Zürich",
    "phone": "",
    "website": "https://paracelsus-spital.com/apotheke/"
  },
  {
    "id": 308131215,
    "name": "Sun Store",
    "lat": 47.2299189,
    "lon": 8.6734768,
    "type": "Apotheke",
    "address": "Zugerstrasse",
    "city": "Zürich",
    "phone": "",
    "website": "https://www.sunstore.ch/"
  },
  {
    "id": 308131245,
    "name": "Amavita Wädenswil Bahnhof",
    "lat": 47.2289352,
    "lon": 8.6750569,
    "type": "Apotheke",
    "address": "Bahnhofstrasse",
    "city": "Zürich",
    "phone": "+41 58 851 33 06",
    "website": "https://www.amavita.ch/de/amavita-apotheke-bahnhof-wadenswil"
  },
  {
    "id": 310133210,
    "name": "Medbase Apotheke Seebach",
    "lat": 47.4205226,
    "lon": 8.5487362,
    "type": "Apotheke",
    "address": "Schaffhauserstrasse",
    "city": "Zürich",
    "phone": "",
    "website": "https://www.topwell.ch/medbaseapothekezuerichseebach/"
  },
  {
    "id": 313053471,
    "name": "Apotheke Utogrund",
    "lat": 47.3791065,
    "lon": 8.4946389,
    "type": "Apotheke",
    "address": "Albisriederstrasse",
    "city": "Zürich",
    "phone": "",
    "website": "https://www.apotheke-utogrund.ch/"
  },
  {
    "id": 313898344,
    "name": "Medbase Apotheke Helvetiaplatz",
    "lat": 47.376059,
    "lon": 8.5252233,
    "type": "Apotheke",
    "address": "Langstrasse",
    "city": "Zürich",
    "phone": "",
    "website": "https://www.topwell.ch/medbaseapothekezuerichhelvetiapl/"
  },
  {
    "id": 314979529,
    "name": "Werd Apotheke",
    "lat": 47.3715926,
    "lon": 8.5256213,
    "type": "Apotheke",
    "address": "Birmensdorferstrasse",
    "city": "Zürich",
    "phone": "",
    "website": "https://www.werd-apotheke.ch/"
  },
  {
    "id": 316855156,
    "name": "Apotheke am Hechtplatz",
    "lat": 47.3870515,
    "lon": 8.7529678,
    "type": "Apotheke",
    "address": "Kirchgasse",
    "city": "Zürich",
    "phone": "+41 44 995 61 01",
    "website": "https://www.apothekeamhechtplatz.ch/"
  },
  {
    "id": 331314395,
    "name": "West-Apotheke",
    "lat": 47.3612769,
    "lon": 8.5056635,
    "type": "Apotheke",
    "address": "Schweighofstrasse",
    "city": "Zürich",
    "phone": "+41 44 463 70 80",
    "website": "https://website--836685969719036726410-pharmacy.business.site/"
  },
  {
    "id": 336258353,
    "name": "BENU",
    "lat": 47.3737003,
    "lon": 8.6409872,
    "type": "Apotheke",
    "address": "Unterdorfstrasse",
    "city": "Zürich",
    "phone": "",
    "website": "https://www.benu.ch/de/pharmacies/faellanden/"
  },
  {
    "id": 347676931,
    "name": "Zahnarztpraxis Urs Kelemen",
    "lat": 47.371821,
    "lon": 8.6417356,
    "type": "Zahnarzt",
    "address": "",
    "city": "Zürich",
    "phone": "",
    "website": ""
  },
  {
    "id": 352860118,
    "name": "Laubegg Apotheke",
    "lat": 47.3612909,
    "lon": 8.517625,
    "type": "Apotheke",
    "address": "Uetlibergstrasse",
    "city": "Zürich",
    "phone": "",
    "website": "https://www.laubeggapotheke.ch/"
  },
  {
    "id": 352995446,
    "name": "Medbase Apotheke Altstadt",
    "lat": 47.4996552,
    "lon": 8.7256243,
    "type": "Apotheke",
    "address": "Stadthausstrasse",
    "city": "Zürich",
    "phone": "",
    "website": "https://www.topwell.ch/medbaseapothekewinterthuraltstad/"
  },
  {
    "id": 354489329,
    "name": "Schloss",
    "lat": 47.357419,
    "lon": 8.7120427,
    "type": "Apotheke",
    "address": "",
    "city": "Zürich",
    "phone": "+41 43 444 25 00",
    "website": "https://www.apotheke-uster.ch/"
  },
  {
    "id": 354494336,
    "name": "Dropa Illuster",
    "lat": 47.3500042,
    "lon": 8.7154192,
    "type": "Apotheke",
    "address": "Zürichstrasse",
    "city": "Zürich",
    "phone": "",
    "website": "https://dropa.ch/standorte/dropa-drogerie-apotheke-illuster"
  },
  {
    "id": 362690129,
    "name": "Apotheke zum Meierhof",
    "lat": 47.4017494,
    "lon": 8.4996666,
    "type": "Apotheke",
    "address": "Limmattalstrasse",
    "city": "Zürich",
    "phone": "",
    "website": "https://www.haut-und-ernaehrung.ch/apotheke-zum-meierhof/"
  },
  {
    "id": 370588821,
    "name": "Medbase Apotheke Uster",
    "lat": 47.3516449,
    "lon": 8.7164275,
    "type": "Apotheke",
    "address": "Bankstrasse",
    "city": "Zürich",
    "phone": "+41 44 905 19 00",
    "website": "https://www.topwell.ch/medbaseapothekeuster/"
  },
  {
    "id": 379714379,
    "name": "TopPharm",
    "lat": 47.3438585,
    "lon": 8.5298166,
    "type": "Apotheke",
    "address": "Albisstrasse",
    "city": "Zürich",
    "phone": "",
    "website": "https://www.apotheke.ch/morgental"
  },
  {
    "id": 388398427,
    "name": "TopPharm Kranich Apotheke",
    "lat": 47.2409273,
    "lon": 8.7226189,
    "type": "Apotheke",
    "address": "Bahnhofwiese",
    "city": "Zürich",
    "phone": "",
    "website": "https://www.apotheke.ch/kranich"
  },
  {
    "id": 388398434,
    "name": "Dropa Stäfa",
    "lat": 47.2408739,
    "lon": 8.7239364,
    "type": "Apotheke",
    "address": "Goethestrasse",
    "city": "Zürich",
    "phone": "",
    "website": "https://dropa.ch/standorte/dropa-drogerie-apotheke-staefa"
  },
  {
    "id": 415400006,
    "name": "Gesundhaus Falken Apotheke",
    "lat": 47.4196446,
    "lon": 8.548453,
    "type": "Apotheke",
    "address": "Schaffhauserstrasse",
    "city": "Zürich",
    "phone": "+41 44 308 80 10",
    "website": "https://www.gesundhaus.ch/"
  },
  {
    "id": 415719038,
    "name": "Landhus Apotheke",
    "lat": 47.4214731,
    "lon": 8.550288,
    "type": "Apotheke",
    "address": "Schaffhauserstrasse",
    "city": "Zürich",
    "phone": "",
    "website": "https://www.landhus-apotheke.ch/"
  },
  {
    "id": 428887442,
    "name": "City Apotheke Ruckstuhl",
    "lat": 47.4053583,
    "lon": 8.402993,
    "type": "Apotheke",
    "address": "Löwenstrasse",
    "city": "Zürich",
    "phone": "",
    "website": ""
  },
  {
    "id": 428891672,
    "name": "Amavita Dietikon",
    "lat": 47.405637,
    "lon": 8.3982172,
    "type": "Apotheke",
    "address": "Badenerstrasse",
    "city": "Zürich",
    "phone": "",
    "website": "https://www.amavita.ch/de/amavita-apotheke-dietikon"
  },
  {
    "id": 429183851,
    "name": "Mitrovic",
    "lat": 47.4043585,
    "lon": 8.4029001,
    "type": "Zahnarzt",
    "address": "",
    "city": "Zürich",
    "phone": "",
    "website": ""
  },
  {
    "id": 429194842,
    "name": "Kleintierpraxis Am Weg",
    "lat": 47.4064387,
    "lon": 8.3971617,
    "type": "Tierarzt",
    "address": "",
    "city": "Zürich",
    "phone": "",
    "website": ""
  },
  {
    "id": 432629009,
    "name": "Pill Apotheke Sihltal",
    "lat": 47.3125693,
    "lon": 8.5246397,
    "type": "Apotheke",
    "address": "Bahnhofplatz",
    "city": "Zürich",
    "phone": "+41 44 710 01 01",
    "website": "https://www.pill.ch/standorte/pill-apotheke-sihltal.html"
  },
  {
    "id": 443662303,
    "name": "Dr. Andres Apotheke Stadelhofen",
    "lat": 47.3660923,
    "lon": 8.5482317,
    "type": "Apotheke",
    "address": "Goethestrasse",
    "city": "Zürich",
    "phone": "+41 44 268 30 00",
    "website": "https://www.apothekestadelhofen.ch/"
  },
  {
    "id": 443662304,
    "name": "Dr. Andres Apotheke Stadelhofen",
    "lat": 47.3659878,
    "lon": 8.5485376,
    "type": "Apotheke",
    "address": "",
    "city": "Zürich",
    "phone": "",
    "website": "https://www.apothekestadelhofen.ch/"
  },
  {
    "id": 444627832,
    "name": "TopPharm",
    "lat": 47.2532533,
    "lon": 8.6895271,
    "type": "Apotheke",
    "address": "Seestrasse",
    "city": "Zürich",
    "phone": "",
    "website": "https://www.apotheke.ch/see-maennedorf"
  },
  {
    "id": 446784541,
    "name": "TopPharm",
    "lat": 47.3839118,
    "lon": 8.5323405,
    "type": "Apotheke",
    "address": "Limmatstrasse",
    "city": "Zürich",
    "phone": "",
    "website": "https://www.apotheke.ch/limmatplatz"
  },
  {
    "id": 446865522,
    "name": "TopPharm",
    "lat": 47.3241113,
    "lon": 8.4693049,
    "type": "Apotheke",
    "address": "Im Heumoos",
    "city": "Zürich",
    "phone": "",
    "website": "https://www.apotheke.ch/heumoos"
  },
  {
    "id": 465284110,
    "name": "Medbase Apotheke Industrie",
    "lat": 47.3863905,
    "lon": 8.5295503,
    "type": "Apotheke",
    "address": "Limmatstrasse",
    "city": "Zürich",
    "phone": "",
    "website": "https://www.topwell.ch/medbaseapothekezuerichindustrie/"
  },
  {
    "id": 471042102,
    "name": "Benu",
    "lat": 47.4282784,
    "lon": 8.6853362,
    "type": "Apotheke",
    "address": "Märtplatz",
    "city": "Zürich",
    "phone": "",
    "website": "https://www.benu.ch/de/pharmacies/effi-maert/"
  },
  {
    "id": 480274035,
    "name": "Medbase Apotheke Rotbuch",
    "lat": 47.3930599,
    "lon": 8.5285694,
    "type": "Apotheke",
    "address": "Röschibachstrasse",
    "city": "Zürich",
    "phone": "+41 43 366 96 02",
    "website": "https://www.topwell.ch/medbaseapothekezuerichrotbuch/"
  },
  {
    "id": 513635042,
    "name": "BENU Apotheke",
    "lat": 47.4110882,
    "lon": 8.5628577,
    "type": "Apotheke",
    "address": "Wallisellenstrasse",
    "city": "Zürich",
    "phone": "",
    "website": "https://www.benu.ch/de/pharmacies/eulen/"
  },
  {
    "id": 538779680,
    "name": "Büli Apotheke Parfumerie",
    "lat": 47.5210012,
    "lon": 8.5392963,
    "type": "Apotheke",
    "address": "Bahnhofstrasse",
    "city": "Zürich",
    "phone": "+41 44 860 72 11",
    "website": "https://www.bueli-apotheke.ch/"
  },
  {
    "id": 568000492,
    "name": "Nature First",
    "lat": 47.4996622,
    "lon": 8.7296567,
    "type": "Apotheke",
    "address": "Marktgasse",
    "city": "Zürich",
    "phone": "",
    "website": "https://naturefirst.ch/standorte/apotheke-und-drogerie-in-winterthur"
  },
  {
    "id": 568021146,
    "name": "Sternen Apotheke",
    "lat": 47.4997116,
    "lon": 8.7286733,
    "type": "Apotheke",
    "address": "Marktgasse",
    "city": "Zürich",
    "phone": "",
    "website": "https://www.sternen-apotheke.ch"
  },
  {
    "id": 613667859,
    "name": "Bären-Apotheke",
    "lat": 47.3705169,
    "lon": 8.5143437,
    "type": "Apotheke",
    "address": "Kalkbreitestrasse",
    "city": "Zürich",
    "phone": "",
    "website": "https://www.baeren-apotheke.ch/"
  },
  {
    "id": 613704433,
    "name": "Apotheke Altstetten AA1",
    "lat": 47.3877883,
    "lon": 8.4855758,
    "type": "Apotheke",
    "address": "Badenerstrasse",
    "city": "Zürich",
    "phone": "",
    "website": "https://www.aa1.ch/"
  },
  {
    "id": 613704525,
    "name": "Apotheke Schafroth",
    "lat": 47.3879571,
    "lon": 8.4863203,
    "type": "Apotheke",
    "address": "Badenerstrasse",
    "city": "Zürich",
    "phone": "",
    "website": "https://achillea.ch/standorte/apotheke-schafroth"
  },
  {
    "id": 639146393,
    "name": "Amavita Schwamendingen",
    "lat": 47.404526,
    "lon": 8.5729473,
    "type": "Apotheke",
    "address": "Winterthurerstrasse",
    "city": "Zürich",
    "phone": "",
    "website": "https://www.amavita.ch/de/amavita-apotheke-schwamendingen"
  },
  {
    "id": 648956174,
    "name": "Apotheke zur Bleiche",
    "lat": 47.3678875,
    "lon": 8.5348942,
    "type": "Apotheke",
    "address": "Bleicherweg",
    "city": "Zürich",
    "phone": "+41 44 201 17 25",
    "website": "https://www.apothekebleiche.ch/"
  },
  {
    "id": 656616207,
    "name": "Paracelsus-Apotheke",
    "lat": 47.3793647,
    "lon": 8.5276523,
    "type": "Apotheke",
    "address": "Langstrasse",
    "city": "Zürich",
    "phone": "",
    "website": "https://www.apotheke-paracelsus.ch/"
  },
  {
    "id": 659861585,
    "name": "Pilgerbrunnen Apotheke",
    "lat": 47.3782798,
    "lon": 8.5108558,
    "type": "Apotheke",
    "address": "Albisriederplatz",
    "city": "Zürich",
    "phone": "",
    "website": "https://www.apotheke-pilgerbrunnen.ch/"
  },
  {
    "id": 660081683,
    "name": "Albis-Apotheke",
    "lat": 47.3760408,
    "lon": 8.4881764,
    "type": "Apotheke",
    "address": "Albisriederstrasse",
    "city": "Zürich",
    "phone": "",
    "website": "https://www.albisapotheke.ch/"
  },
  {
    "id": 660086455,
    "name": "Stauffacher Apotheke",
    "lat": 47.372996,
    "lon": 8.5278947,
    "type": "Apotheke",
    "address": "Birmensdorferstrasse",
    "city": "Zürich",
    "phone": "",
    "website": "https://www.stauffacher-apotheke.ch/"
  },
  {
    "id": 664406565,
    "name": "Oberland Apotheke",
    "lat": 47.3271821,
    "lon": 8.800112,
    "type": "Apotheke",
    "address": "Bahnhofstrasse",
    "city": "Zürich",
    "phone": "",
    "website": ""
  },
  {
    "id": 670339702,
    "name": "Amavita Apotheke Dübendorf",
    "lat": 47.3991933,
    "lon": 8.6215296,
    "type": "Apotheke",
    "address": "Bahnhofstrasse",
    "city": "Zürich",
    "phone": "058 878 11 60",
    "website": ""
  },
  {
    "id": 686557302,
    "name": "TopPharm",
    "lat": 47.3838074,
    "lon": 8.6605368,
    "type": "Apotheke",
    "address": "Bahnstrasse",
    "city": "Zürich",
    "phone": "",
    "website": "https://www.apotheke.ch/schwerzenbach"
  },
  {
    "id": 693318441,
    "name": "Victoria Apotheke",
    "lat": 47.3742811,
    "lon": 8.5383036,
    "type": "Apotheke",
    "address": "Bahnhofstrasse",
    "city": "Zürich",
    "phone": "",
    "website": "https://www.pharmaworld.com/"
  },
  {
    "id": 693318592,
    "name": "Coop Vitality",
    "lat": 47.3758718,
    "lon": 8.5391041,
    "type": "Apotheke",
    "address": "Bahnhofstrasse",
    "city": "Zürich",
    "phone": "",
    "website": "https://www.coopvitality.ch/de/coop-vitality-zurich"
  },
  {
    "id": 693318667,
    "name": "swiss smile",
    "lat": 47.3767441,
    "lon": 8.5399903,
    "type": "Zahnarzt",
    "address": "Bahnhofstrasse",
    "city": "Zürich",
    "phone": "",
    "website": ""
  },
  {
    "id": 693318670,
    "name": "Amavita",
    "lat": 47.37669,
    "lon": 8.5399521,
    "type": "Apotheke",
    "address": "Bahnhofstrasse",
    "city": "Zürich",
    "phone": "",
    "website": "https://www.amavita.ch/de/amavita-apotheke-bahnhofplatz-zurich"
  },
  {
    "id": 698785782,
    "name": "Marktgass Apotheke",
    "lat": 47.3976672,
    "lon": 8.6173752,
    "type": "Apotheke",
    "address": "",
    "city": "Zürich",
    "phone": "",
    "website": ""
  },
  {
    "id": 703216769,
    "name": "TopPharm",
    "lat": 47.3776379,
    "lon": 8.5435927,
    "type": "Apotheke",
    "address": "Stampfenbachstrasse",
    "city": "Zürich",
    "phone": "",
    "website": "https://www.apotheke.ch/leonhards"
  },
  {
    "id": 704834757,
    "name": "Medbase Apotheke Dübendorf",
    "lat": 47.3973629,
    "lon": 8.616927,
    "type": "Apotheke",
    "address": "Adlerstrasse",
    "city": "Zürich",
    "phone": "",
    "website": "https://www.topwell.ch/medbaseapothekeduebendorf/"
  },
  {
    "id": 706426545,
    "name": "TopPharm Römer Apotheke",
    "lat": 47.5094046,
    "lon": 8.7585021,
    "type": "Apotheke",
    "address": "Römerstrasse",
    "city": "Zürich",
    "phone": "",
    "website": "https://www.apotheke.ch/roemer-winterthur"
  },
  {
    "id": 732706068,
    "name": "TopPharm Apotheke Dr. Rebhan",
    "lat": 47.2683278,
    "lon": 8.6458493,
    "type": "Apotheke",
    "address": "Rosengartenstrasse",
    "city": "Zürich",
    "phone": "",
    "website": "https://www.apotheke.ch/rebhan"
  },
  {
    "id": 738031618,
    "name": "Tierarztpraxis Gull",
    "lat": 47.2631631,
    "lon": 8.6768338,
    "type": "Tierarzt",
    "address": "Bergstrasse",
    "city": "Zürich",
    "phone": "",
    "website": ""
  },
  {
    "id": 738031621,
    "name": "Riedsteg",
    "lat": 47.2631804,
    "lon": 8.6774473,
    "type": "Apotheke",
    "address": "Bergstrasse",
    "city": "Zürich",
    "phone": "",
    "website": "https://riedsteg-apotheke.ch/"
  },
  {
    "id": 765769912,
    "name": "Medbase Apotheke Zehntenhaus",
    "lat": 47.4193712,
    "lon": 8.5067513,
    "type": "Apotheke",
    "address": "Zehntenhausstrasse",
    "city": "Zürich",
    "phone": "",
    "website": "https://www.medbase-apotheken.ch/apotheken/detail/medbase-apotheke-zuerich-zehntenhaus/"
  },
  {
    "id": 841975032,
    "name": "Dropa Urdorf",
    "lat": 47.384958,
    "lon": 8.4225465,
    "type": "Apotheke",
    "address": "Birmensdorferstrasse",
    "city": "Zürich",
    "phone": "+41 44 735 10 30",
    "website": "https://dropa.ch/standorte/dropa-drogerie-apotheke-urdorf"
  },
  {
    "id": 842629464,
    "name": "Amavita Rümlang",
    "lat": 47.4508792,
    "lon": 8.5300081,
    "type": "Apotheke",
    "address": "Oberdorfstrasse",
    "city": "Zürich",
    "phone": "+41 58 878 22 40",
    "website": "https://www.amavita.ch/de/amavita-apotheke-rumlang"
  },
  {
    "id": 848939047,
    "name": "Amavita",
    "lat": 47.3750349,
    "lon": 8.5237485,
    "type": "Apotheke",
    "address": "Kernstrasse",
    "city": "Zürich",
    "phone": "",
    "website": "https://www.amavita.ch/de/amavita-apotheke-wengihof"
  },
  {
    "id": 861782890,
    "name": "Benu",
    "lat": 47.2889907,
    "lon": 8.5389653,
    "type": "Apotheke",
    "address": "Vordere Grundstrasse",
    "city": "Zürich",
    "phone": "",
    "website": "https://www.benu.ch/de/pharmacies/langnau-am-albis/"
  },
  {
    "id": 866556471,
    "name": "Medbase Apotheke Berninaplatz",
    "lat": 47.4033589,
    "lon": 8.5472861,
    "type": "Apotheke",
    "address": "Schaffhauserstrasse",
    "city": "Zürich",
    "phone": "",
    "website": "https://www.topwell.ch/medbaseapothekezuerichberninapla/"
  },
  {
    "id": 891896164,
    "name": "Rigi Apotheke und Drogerie",
    "lat": 47.3857176,
    "lon": 8.5487292,
    "type": "Apotheke",
    "address": "Universitätstrasse",
    "city": "Zürich",
    "phone": "",
    "website": "https://www.apotheke-rigi.ch/"
  },
  {
    "id": 893610811,
    "name": "VETtrust AG Praxis Zentrum Turbenthal",
    "lat": 47.4375363,
    "lon": 8.8452778,
    "type": "Tierarzt",
    "address": "",
    "city": "Zürich",
    "phone": "+41 52 385 25 70",
    "website": "https://www.praxiszentrum-turbenthal.ch/"
  },
  {
    "id": 897238530,
    "name": "Apotheke & Drogerie Leue",
    "lat": 47.2528536,
    "lon": 8.6959446,
    "type": "Apotheke",
    "address": "Alte Landstrasse",
    "city": "Zürich",
    "phone": "",
    "website": "https://www.apotheke-leue.ch/"
  },
  {
    "id": 904620471,
    "name": "Medbase Apotheke Kreis 11",
    "lat": 47.4096018,
    "lon": 8.5443935,
    "type": "Apotheke",
    "address": "Querstrasse",
    "city": "Zürich",
    "phone": "+41 44 311 86 65",
    "website": "https://www.topwell.ch/medbaseapothekezuerichkreis11"
  },
  {
    "id": 916226803,
    "name": "Neuwiesen Apotheke",
    "lat": 47.4988832,
    "lon": 8.7206254,
    "type": "Apotheke",
    "address": "",
    "city": "Zürich",
    "phone": "",
    "website": ""
  },
  {
    "id": 916616131,
    "name": "Sonnen-Apotheke",
    "lat": 47.3681104,
    "lon": 8.5458885,
    "type": "Apotheke",
    "address": "Torgasse",
    "city": "Zürich",
    "phone": "",
    "website": "https://www.sonnenapotheke-zuerich.ch/"
  },
  {
    "id": 926918994,
    "name": "Sternen Apotheke",
    "lat": 47.4095957,
    "lon": 8.5464844,
    "type": "Apotheke",
    "address": "Schaffhauserstrasse",
    "city": "Zürich",
    "phone": "+41 44 311 53 33",
    "website": "https://www.sternenapo.ch/"
  },
  {
    "id": 936942686,
    "name": "Coop Vitality",
    "lat": 47.3734534,
    "lon": 8.5304688,
    "type": "Apotheke",
    "address": "Badenerstrasse",
    "city": "Zürich",
    "phone": "",
    "website": ""
  },
  {
    "id": 942754544,
    "name": "Tierärzte Zentrum",
    "lat": 47.4067685,
    "lon": 8.5501559,
    "type": "Tierarzt",
    "address": "Dörflistrasse",
    "city": "Zürich",
    "phone": "",
    "website": ""
  },
  {
    "id": 943868646,
    "name": "Biotheke",
    "lat": 47.3836588,
    "lon": 8.5484321,
    "type": "Apotheke",
    "address": "Universitätstrasse",
    "city": "Zürich",
    "phone": "",
    "website": "https://www.biotheke.ch/"
  },
  {
    "id": 983433415,
    "name": "Apotheke Zum Mörser",
    "lat": 47.4034292,
    "lon": 8.5891049,
    "type": "Apotheke",
    "address": "Hirzenbachstrasse",
    "city": "Zürich",
    "phone": "",
    "website": "https://www.apothekezummoerser.ch/"
  },
  {
    "id": 1110775501,
    "name": "Löwen Apotheke",
    "lat": 47.373314,
    "lon": 8.5384614,
    "type": "Apotheke",
    "address": "Bahnhofstrasse",
    "city": "Zürich",
    "phone": "",
    "website": "http://www.loewen-apotheke-zuerich.ch/"
  },
  {
    "id": 1289140864,
    "name": "Apotheke am Stadtrain",
    "lat": 47.5021831,
    "lon": 8.7485643,
    "type": "Apotheke",
    "address": "Frauenfelderstrasse",
    "city": "Zürich",
    "phone": "",
    "website": ""
  },
  {
    "id": 1305672713,
    "name": "Nature First Apotheke",
    "lat": 47.3780503,
    "lon": 8.5098694,
    "type": "Apotheke",
    "address": "Albisriederplatz",
    "city": "Zürich",
    "phone": "",
    "website": "https://www.naturefirst.ch/"
  },
  {
    "id": 1328945978,
    "name": "Amavita",
    "lat": 47.4851087,
    "lon": 8.7623802,
    "type": "Apotheke",
    "address": "Hinterdorfstrasse",
    "city": "Zürich",
    "phone": "+41 52 232 13 13",
    "website": "https://www.amavita.ch/de/amavita-apotheke-seen"
  },
  {
    "id": 1346131970,
    "name": "Apotheke am Kreuzplatz",
    "lat": 47.3650881,
    "lon": 8.5537692,
    "type": "Apotheke",
    "address": "Kreuzplatz",
    "city": "Zürich",
    "phone": "",
    "website": "https://www.haut-und-ernaehrung.ch/apotheke-am-kreuzplatz/"
  },
  {
    "id": 1346131983,
    "name": "Pill Apotheke Neumünster",
    "lat": 47.3643816,
    "lon": 8.5549292,
    "type": "Apotheke",
    "address": "Forchstrasse",
    "city": "Zürich",
    "phone": "",
    "website": "https://www.pill.ch/standorte/pill-apotheke-neumuenster.html"
  },
  {
    "id": 1346158031,
    "name": "Zahnärzteteam Volketswil",
    "lat": 47.3809208,
    "lon": 8.6724841,
    "type": "Zahnarzt",
    "address": "Industriestrasse",
    "city": "Zürich",
    "phone": "+41 44 94540401",
    "website": "https://lifedent.ch/zahnarzt/volketswil/"
  },
  {
    "id": 1359733090,
    "name": "Klus-Apotheke",
    "lat": 47.3645751,
    "lon": 8.5666306,
    "type": "Apotheke",
    "address": "Hegibachstrasse",
    "city": "Zürich",
    "phone": "+41 44 381 70 30",
    "website": "https://www.klus-apotheke.ch/"
  },
  {
    "id": 1360237968,
    "name": "TopPharm",
    "lat": 47.3654807,
    "lon": 8.5213755,
    "type": "Apotheke",
    "address": "Malzstrasse",
    "city": "Zürich",
    "phone": "",
    "website": "https://www.apotheke.ch/manesse"
  },
  {
    "id": 1377449055,
    "name": "Bahnhof Apotheke Wetzikon",
    "lat": 47.3196239,
    "lon": 8.7928633,
    "type": "Apotheke",
    "address": "Bahnhofstrasse",
    "city": "Zürich",
    "phone": "+41 44 932 13 30",
    "website": "https://achillea.ch/standorte/bahnhof-apotheke-wetzikon"
  },
  {
    "id": 1377451782,
    "name": "BENU Apotheke",
    "lat": 47.3680176,
    "lon": 8.5599727,
    "type": "Apotheke",
    "address": "Asylstrasse",
    "city": "Zürich",
    "phone": "",
    "website": "https://www.benu.ch/de/pharmacies/carmen/"
  },
  {
    "id": 1390807245,
    "name": "Apotheke Schaffhauserplatz",
    "lat": 47.3916892,
    "lon": 8.5383642,
    "type": "Apotheke",
    "address": "Seminarstrasse",
    "city": "Zürich",
    "phone": "",
    "website": "https://www.apothekeschaffhauserplatz.ch/"
  },
  {
    "id": 1391382161,
    "name": "Hirsch-Apotheke",
    "lat": 47.3963465,
    "lon": 8.5408536,
    "type": "Apotheke",
    "address": "Schaffhauserstrasse",
    "city": "Zürich",
    "phone": "",
    "website": "https://www.hirschapotheke.ch/"
  },
  {
    "id": 1391383876,
    "name": "Hirschwiesen-Apotheke",
    "lat": 47.4003419,
    "lon": 8.5439647,
    "type": "Apotheke",
    "address": "Schaffhauserstrasse",
    "city": "Zürich",
    "phone": "",
    "website": "https://www.hirschwiesenapotheke.ch/"
  },
  {
    "id": 1413703407,
    "name": "Fontana Apotheke",
    "lat": 47.3799333,
    "lon": 8.5160928,
    "type": "Apotheke",
    "address": "Sihlfeldstrasse",
    "city": "Zürich",
    "phone": "",
    "website": "https://www.fontanaapotheke.ch/"
  },
  {
    "id": 1504082568,
    "name": "Apotheke Seuzach",
    "lat": 47.535424,
    "lon": 8.731219,
    "type": "Apotheke",
    "address": "Breitestrasse",
    "city": "Zürich",
    "phone": "",
    "website": "https://www.apotheke-seuzach.ch/"
  },
  {
    "id": 1516368539,
    "name": "Mistel-Apotheke",
    "lat": 47.2518246,
    "lon": 8.7673724,
    "type": "Apotheke",
    "address": "",
    "city": "Zürich",
    "phone": "",
    "website": ""
  },
  {
    "id": 1545780608,
    "name": "Lochergut Apotheke",
    "lat": 47.3756577,
    "lon": 8.5175375,
    "type": "Apotheke",
    "address": "Badenerstrasse",
    "city": "Zürich",
    "phone": "",
    "website": "https://www.lochergutapotheke.ch/"
  },
  {
    "id": 1577376715,
    "name": "Medbase Apotheke Affoltern a.A.",
    "lat": 47.2783643,
    "lon": 8.452964,
    "type": "Apotheke",
    "address": "Centralweg",
    "city": "Zürich",
    "phone": "+41 44 761 63 24",
    "website": "https://www.topwell.ch/medbaseapothekeaffolternaa/"
  },
  {
    "id": 1581271937,
    "name": "Rathaus Apotheke",
    "lat": 47.4999809,
    "lon": 8.7308307,
    "type": "Apotheke",
    "address": "Unterer Graben",
    "city": "Zürich",
    "phone": "",
    "website": "https://achillea.ch/standorte/rathaus-apotheke"
  },
  {
    "id": 1598834330,
    "name": "BENU Apotheke",
    "lat": 47.358678,
    "lon": 8.5862204,
    "type": "Apotheke",
    "address": "Witikonerstrasse",
    "city": "Zürich",
    "phone": "",
    "website": "https://www.benu.ch/de/pharmacies/gesundheits-forum-witikon/"
  },
  {
    "id": 1625431883,
    "name": "Zürigsund Im Brühl",
    "lat": 47.403473,
    "lon": 8.4976988,
    "type": "Apotheke",
    "address": "Regensdorferstrasse",
    "city": "Zürich",
    "phone": "",
    "website": "https://www.zuerigsund.ch/"
  },
  {
    "id": 1625431886,
    "name": "Wartau Apotheke",
    "lat": 47.4025802,
    "lon": 8.4932544,
    "type": "Apotheke",
    "address": "Limmattalstrasse",
    "city": "Zürich",
    "phone": "+41 44 341 76 46",
    "website": "https://www.wartauapotheke.ch/"
  },
  {
    "id": 1633856466,
    "name": "TopPharm Sonnen Apotheke",
    "lat": 47.4918431,
    "lon": 8.5041368,
    "type": "Apotheke",
    "address": "Grafschaftstrasse",
    "city": "Zürich",
    "phone": "",
    "website": "https://www.apotheke.ch/sonnen"
  },
  {
    "id": 1687796033,
    "name": "Apotheke Affoltern",
    "lat": 47.4122382,
    "lon": 8.5247185,
    "type": "Apotheke",
    "address": "Wehntalerstrasse",
    "city": "Zürich",
    "phone": "+41 44 371 25 33",
    "website": "https://www.apothekeaffoltern.ch/"
  },
  {
    "id": 1701671262,
    "name": "Anima Kleintierpraxis",
    "lat": 47.2408387,
    "lon": 8.7262525,
    "type": "Tierarzt",
    "address": "Grundstrasse",
    "city": "Zürich",
    "phone": "",
    "website": ""
  },
  {
    "id": 1740538020,
    "name": "Pfauen-Apotheke",
    "lat": 47.3706294,
    "lon": 8.5496573,
    "type": "Apotheke",
    "address": "Rämistrasse",
    "city": "Zürich",
    "phone": "",
    "website": ""
  },
  {
    "id": 1741840463,
    "name": "wintivets Tierklinik",
    "lat": 47.508155,
    "lon": 8.6990991,
    "type": "Tierarzt",
    "address": "",
    "city": "Zürich",
    "phone": "+41522129010",
    "website": "https://www.wintivets.ch/"
  },
  {
    "id": 1758460159,
    "name": "Apotheke Lilie Zentrum",
    "lat": 47.3966331,
    "lon": 8.4482559,
    "type": "Apotheke",
    "address": "Uitikonerstrasse",
    "city": "Zürich",
    "phone": "+41 44 730 59 89",
    "website": "https://www.apolilie-zentrum.ch/"
  },
  {
    "id": 1768690515,
    "name": "Minerva Apotheke",
    "lat": 47.3614842,
    "lon": 8.5610538,
    "type": "Apotheke",
    "address": "Forchstrasse",
    "city": "Zürich",
    "phone": "",
    "website": "https://www.minerva-apotheke.ch/"
  },
  {
    "id": 1788458398,
    "name": "Kleintierpraxis Nicole Hager",
    "lat": 47.3073828,
    "lon": 8.7579221,
    "type": "Tierarzt",
    "address": "",
    "city": "Zürich",
    "phone": "+41 43 355 00 77",
    "website": ""
  },
  {
    "id": 1788460722,
    "name": "Dorf-Apotheke Gossau",
    "lat": 47.3072044,
    "lon": 8.75753,
    "type": "Apotheke",
    "address": "Grütstrasse",
    "city": "Zürich",
    "phone": "",
    "website": ""
  },
  {
    "id": 1792722215,
    "name": "Drogerie Büelgass",
    "lat": 47.3058571,
    "lon": 8.7571388,
    "type": "Apotheke",
    "address": "",
    "city": "Zürich",
    "phone": "",
    "website": ""
  },
  {
    "id": 1836515686,
    "name": "TopPharm Apotheke Witikon",
    "lat": 47.3580584,
    "lon": 8.587865,
    "type": "Apotheke",
    "address": "Carl-Spitteler-Strasse",
    "city": "Zürich",
    "phone": "",
    "website": "https://www.apotheke.ch/witikon"
  },
  {
    "id": 1837250425,
    "name": "Drogerie Flückiger",
    "lat": 47.299228,
    "lon": 8.8375475,
    "type": "Apotheke",
    "address": "Gossauerstrasse",
    "city": "Zürich",
    "phone": "+41 449 373 336",
    "website": "https://www.drogerie-fluekiger.ch/"
  },
  {
    "id": 1841363731,
    "name": "Medbase Apotheke Glattbrugg",
    "lat": 47.434373,
    "lon": 8.5672245,
    "type": "Apotheke",
    "address": "Schaffhauserstrasse",
    "city": "Zürich",
    "phone": "043 211 57 77",
    "website": "https://www.medbase-apotheken.ch/apotheken/detail/medbase-apotheke-glattbrugg/"
  },
  {
    "id": 1924110536,
    "name": "APODRO Apotheke",
    "lat": 47.3697257,
    "lon": 8.5205723,
    "type": "Apotheke",
    "address": "Zurlindenstrasse",
    "city": "Zürich",
    "phone": "",
    "website": "https://www.apodro.ch/%C3%BCber-uns/apodro-standorte/schmiedegg/"
  },
  {
    "id": 1925758935,
    "name": "Coop Vitality",
    "lat": 47.3707249,
    "lon": 8.5160272,
    "type": "Apotheke",
    "address": "Birmensdorferstrasse",
    "city": "Zürich",
    "phone": "",
    "website": "https://www.coopvitality.ch/de/coop-vitality-wiedikon"
  },
  {
    "id": 1937738039,
    "name": "Deutweg Apotheke",
    "lat": 47.494614,
    "lon": 8.7403305,
    "type": "Apotheke",
    "address": "",
    "city": "Zürich",
    "phone": "",
    "website": ""
  },
  {
    "id": 1982490339,
    "name": "TopPharm Apotheke & Drogerie Birmensdorf",
    "lat": 47.3537242,
    "lon": 8.4369103,
    "type": "Apotheke",
    "address": "Zürcherstrasse",
    "city": "Zürich",
    "phone": "",
    "website": "https://www.apotheke.ch/birmensdorf"
  },
  {
    "id": 2080086565,
    "name": "Pill Apotheke & Drogerie Glärnisch",
    "lat": 47.3077595,
    "lon": 8.554201,
    "type": "Apotheke",
    "address": "Weingartenstrasse",
    "city": "Zürich",
    "phone": "",
    "website": "https://www.pill.ch/standorte/pill-apotheke-drogerie-glaernisch.html"
  },
  {
    "id": 2080113855,
    "name": "Kleintierpraxis Leu",
    "lat": 47.3056719,
    "lon": 8.5561475,
    "type": "Tierarzt",
    "address": "",
    "city": "Zürich",
    "phone": "",
    "website": ""
  },
  {
    "id": 2081117847,
    "name": "Dropa Limmatplatz",
    "lat": 47.3850081,
    "lon": 8.5315987,
    "type": "Apotheke",
    "address": "Limmatplatz",
    "city": "Zürich",
    "phone": "",
    "website": "https://dropa.ch/standorte/dropa-drogerie-apotheke-limmatplatz"
  },
  {
    "id": 2107009158,
    "name": "Drogama Apotheke Drogerie",
    "lat": 47.3703419,
    "lon": 8.5085106,
    "type": "Apotheke",
    "address": "Birmensdorferstrasse",
    "city": "Zürich",
    "phone": "",
    "website": "https://achillea.ch/standorte/drogama-apotheke-drogerie"
  },
  {
    "id": 2148151445,
    "name": "AniSano",
    "lat": 47.5203124,
    "lon": 8.5461543,
    "type": "Tierarzt",
    "address": "",
    "city": "Zürich",
    "phone": "",
    "website": ""
  },
  {
    "id": 2148151448,
    "name": "Floris",
    "lat": 47.5187375,
    "lon": 8.542533,
    "type": "Tierarzt",
    "address": "",
    "city": "Zürich",
    "phone": "",
    "website": ""
  },
  {
    "id": 2289494989,
    "name": "Amavita Zumikon",
    "lat": 47.3320839,
    "lon": 8.6237691,
    "type": "Apotheke",
    "address": "Dorfplatz",
    "city": "Zürich",
    "phone": "",
    "website": "https://www.amavita.ch/de/amavita-apotheke-zumikon"
  },
  {
    "id": 2317012355,
    "name": "Apotheke Im Zentrum",
    "lat": 47.2795549,
    "lon": 8.6151564,
    "type": "Apotheke",
    "address": "",
    "city": "Zürich",
    "phone": "",
    "website": ""
  },
  {
    "id": 2348236655,
    "name": "Dentalhygiene-Praxis Isa Koller & Monika Bettio-Jud",
    "lat": 47.2538399,
    "lon": 8.842021,
    "type": "Zahnarzt",
    "address": "Unterwiesstrasse",
    "city": "Zürich",
    "phone": "",
    "website": ""
  },
  {
    "id": 2353454619,
    "name": "Apotheke im Freihof",
    "lat": 47.4235473,
    "lon": 8.6297899,
    "type": "Apotheke",
    "address": "Zürichstrasse",
    "city": "Zürich",
    "phone": "",
    "website": "https://www.apotheke-imfreihof.ch/"
  },
  {
    "id": 2364044454,
    "name": "Medbase",
    "lat": 47.3678988,
    "lon": 8.781923,
    "type": "Apotheke",
    "address": "Turmstrasse",
    "city": "Zürich",
    "phone": "",
    "website": "https://www.topwell.ch/medbaseapothekepfaeffikon/"
  },
  {
    "id": 2408277201,
    "name": "Amavita",
    "lat": 47.4511063,
    "lon": 8.5624544,
    "type": "Apotheke",
    "address": "",
    "city": "Zürich",
    "phone": "+41 58 878 25 60",
    "website": "https://www.amavita.ch/de/amavita-apotheke-flughafen-284"
  },
  {
    "id": 2408277205,
    "name": "Amavita Apotheke",
    "lat": 47.4526634,
    "lon": 8.5619109,
    "type": "Apotheke",
    "address": "",
    "city": "Zürich",
    "phone": "+41 58 878 25 60",
    "website": ""
  },
  {
    "id": 2408277256,
    "name": "Amavita",
    "lat": 47.4512783,
    "lon": 8.5608802,
    "type": "Apotheke",
    "address": "",
    "city": "Zürich",
    "phone": "+41 58 878 34 30",
    "website": "https://www.amavita.ch/"
  },
  {
    "id": 2434379960,
    "name": "Medbase Apotheke Oberi",
    "lat": 47.5098663,
    "lon": 8.7589667,
    "type": "Apotheke",
    "address": "Römerstrasse",
    "city": "Zürich",
    "phone": "+41 52 245 19 45",
    "website": "https://www.topwell.ch/medbaseapothekewinterthuroberi/"
  },
  {
    "id": 2463070431,
    "name": "Zum Gerichtshaus",
    "lat": 47.4817544,
    "lon": 8.4537708,
    "type": "Apotheke",
    "address": "Wehntalerstrasse",
    "city": "Zürich",
    "phone": "+41 44 853 21 26",
    "website": "http://www.gesundheits-apotheke.ch/"
  },
  {
    "id": 2468322528,
    "name": "APODRO Apotheke",
    "lat": 47.2748429,
    "lon": 8.9151633,
    "type": "Apotheke",
    "address": "Bahnhofstrasse",
    "city": "Zürich",
    "phone": "+41 55 266 12 01",
    "website": "https://www.apodro.ch/%C3%BCber-uns/apodro-standorte/wald/"
  },
  {
    "id": 2479519173,
    "name": "Wehntal-Apotheke",
    "lat": 47.402496,
    "lon": 8.5358866,
    "type": "Apotheke",
    "address": "Hofwiesenstrasse",
    "city": "Zürich",
    "phone": "",
    "website": "http://www.wehntal-apotheke.ch/"
  },
  {
    "id": 2487061375,
    "name": "Drogerie",
    "lat": 47.504688,
    "lon": 8.5942386,
    "type": "Apotheke",
    "address": "",
    "city": "Zürich",
    "phone": "",
    "website": ""
  },
  {
    "id": 2509261942,
    "name": "Rothaus",
    "lat": 47.269951,
    "lon": 8.6419389,
    "type": "Apotheke",
    "address": "",
    "city": "Zürich",
    "phone": "",
    "website": ""
  },
  {
    "id": 2526218137,
    "name": "Gotthard Apotheke",
    "lat": 47.2956338,
    "lon": 8.5635726,
    "type": "Apotheke",
    "address": "",
    "city": "Zürich",
    "phone": "+41 44 720 04 70",
    "website": "https://www.gotthard.apotheke.ch/"
  },
  {
    "id": 2527989801,
    "name": "Kleintierpraxis Seebach",
    "lat": 47.4227903,
    "lon": 8.5408142,
    "type": "Tierarzt",
    "address": "Seebacherstrasse",
    "city": "Zürich",
    "phone": "+41 43 300 11 66",
    "website": "https://www.kleintierpraxis-seebach.ch"
  },
  {
    "id": 2566004537,
    "name": "Dr. med.dent. Jens Tartsch",
    "lat": 47.3251993,
    "lon": 8.5448234,
    "type": "Zahnarzt",
    "address": "",
    "city": "Zürich",
    "phone": "",
    "website": ""
  },
  {
    "id": 2613296079,
    "name": "Drogerie Teufer",
    "lat": 47.3682623,
    "lon": 8.7808047,
    "type": "Apotheke",
    "address": "",
    "city": "Zürich",
    "phone": "",
    "website": "https://www.drogerieteufer.ch/"
  },
  {
    "id": 2632203732,
    "name": "Physiotherapie Kreuzplatz GmbH",
    "lat": 47.3648462,
    "lon": 8.553602,
    "type": "Physiotherapie",
    "address": "",
    "city": "Zürich",
    "phone": "+41 44 260 95 95",
    "website": "https://www.physiokreuzplatz.ch/"
  },
  {
    "id": 2635575321,
    "name": "Apotheke & Drogerie Oerlikon",
    "lat": 47.4111761,
    "lon": 8.545519,
    "type": "Apotheke",
    "address": "Nansenstrasse",
    "city": "Zürich",
    "phone": "",
    "website": "https://www.apotheke-oerlikon.ch/"
  },
  {
    "id": 2743760878,
    "name": "Leimbach Apotheke",
    "lat": 47.3263736,
    "lon": 8.514089,
    "type": "Apotheke",
    "address": "Leimbachstrasse",
    "city": "Zürich",
    "phone": "",
    "website": "https://achillea.ch/standorte/leimbach-apotheke"
  },
  {
    "id": 2837452171,
    "name": "denticus",
    "lat": 47.3244767,
    "lon": 8.7978145,
    "type": "Zahnarzt",
    "address": "Bahnhofstrasse",
    "city": "Zürich",
    "phone": "",
    "website": ""
  },
  {
    "id": 2837453532,
    "name": "Walter Weilenmann",
    "lat": 47.3322054,
    "lon": 8.8083336,
    "type": "Zahnarzt",
    "address": "Zentralstrasse",
    "city": "Zürich",
    "phone": "+41 44 930 33 03",
    "website": ""
  },
  {
    "id": 2837458150,
    "name": "Benjamin Braem",
    "lat": 47.3237527,
    "lon": 8.7986744,
    "type": "Zahnarzt",
    "address": "Bahnhofstrasse",
    "city": "Zürich",
    "phone": "",
    "website": ""
  },
  {
    "id": 2837459061,
    "name": "Fabiola Krebs Rodriguez",
    "lat": 47.321111,
    "lon": 8.794093,
    "type": "Zahnarzt",
    "address": "Eichstrasse",
    "city": "Zürich",
    "phone": "",
    "website": ""
  },
  {
    "id": 2837460507,
    "name": "Marco Meichtry",
    "lat": 47.33173,
    "lon": 8.8078968,
    "type": "Zahnarzt",
    "address": "Bahnhofstrasse",
    "city": "Zürich",
    "phone": "",
    "website": ""
  },
  {
    "id": 2837462102,
    "name": "Mario Venzin",
    "lat": 47.3237631,
    "lon": 8.798731,
    "type": "Zahnarzt",
    "address": "Bahnhofstrasse",
    "city": "Zürich",
    "phone": "",
    "website": ""
  },
  {
    "id": 2837464519,
    "name": "Remo und Keiko Koch-Yamaguchi",
    "lat": 47.3265127,
    "lon": 8.7990914,
    "type": "Zahnarzt",
    "address": "",
    "city": "Zürich",
    "phone": "+41 44 930 21 15",
    "website": ""
  },
  {
    "id": 2837474603,
    "name": "Dentaltechnik Mikes Roman",
    "lat": 47.3311489,
    "lon": 8.7903704,
    "type": "Zahnarzt",
    "address": "Buchgrindelstrasse",
    "city": "Zürich",
    "phone": "+41 44 930 78 30",
    "website": ""
  },
  {
    "id": 2837533590,
    "name": "Praxis für Kieferorthopädie Remo Schalcher",
    "lat": 47.3277927,
    "lon": 8.79321,
    "type": "Zahnarzt",
    "address": "Usterstrasse",
    "city": "Zürich",
    "phone": "+41 44 930 66 16",
    "website": "https://www.schalcher.ch/"
  },
  {
    "id": 2837535477,
    "name": "Zahnarztpraxis Dr. med. dent. Aida Dubiel",
    "lat": 47.3874993,
    "lon": 8.7558783,
    "type": "Zahnarzt",
    "address": "Neugrundstrasse",
    "city": "Zürich",
    "phone": "+41 44 954 17 72",
    "website": ""
  },
  {
    "id": 2837544309,
    "name": "Praxis für Kieferorthopädie Camelia Gross",
    "lat": 47.3262597,
    "lon": 8.7973818,
    "type": "Zahnarzt",
    "address": "Kirchgasse",
    "city": "Zürich",
    "phone": "+41 43 477 57 77",
    "website": ""
  },
  {
    "id": 2837549812,
    "name": "Praxis für Zahnprothesen Schuler",
    "lat": 47.3023809,
    "lon": 8.7630161,
    "type": "Zahnarzt",
    "address": "Berghofstrasse",
    "city": "Zürich",
    "phone": "+41 44 975 12 52",
    "website": "https://www.zahnprothetik-schuler.ch/"
  },
  {
    "id": 2837549895,
    "name": "Praxis für Zahnprothetik",
    "lat": 47.3684446,
    "lon": 8.876692,
    "type": "Zahnarzt",
    "address": "Heinrich Gujerstrasse",
    "city": "Zürich",
    "phone": "+41 52 386 33 44",
    "website": "https://www.zahnprothetiker.ch/"
  },
  {
    "id": 2837555700,
    "name": "Dr. med. dent. Erik Müller",
    "lat": 47.3364309,
    "lon": 8.8535973,
    "type": "Zahnarzt",
    "address": "Bahnhofstrasse",
    "city": "Zürich",
    "phone": "+41 44 939 18 86",
    "website": ""
  },
  {
    "id": 2837560379,
    "name": "Norbert Hüssy",
    "lat": 47.263302,
    "lon": 8.8506426,
    "type": "Zahnarzt",
    "address": "Florastrasse",
    "city": "Zürich",
    "phone": "+41 55 240 43 13",
    "website": "https://zahnarztpraxis-tannenhof.ch/"
  },
  {
    "id": 2837562762,
    "name": "Dr. med. dent Daniel Zürcher",
    "lat": 47.3670267,
    "lon": 8.879768,
    "type": "Zahnarzt",
    "address": "Dorfstrasse",
    "city": "Zürich",
    "phone": "+41 52 386 31 21",
    "website": "http://www.zahnarzt-zuercher.ch"
  },
  {
    "id": 2837570170,
    "name": "Zahnteam Wetzikon AG",
    "lat": 47.3200691,
    "lon": 8.7921291,
    "type": "Zahnarzt",
    "address": "Zürcherstrasse",
    "city": "Zürich",
    "phone": "",
    "website": "https://www.zahnteam-wetzikon.ch/"
  },
  {
    "id": 2837572424,
    "name": "Zahnarztzentrum",
    "lat": 47.3488982,
    "lon": 8.7160992,
    "type": "Zahnarzt",
    "address": "Zürichstrasse",
    "city": "Zürich",
    "phone": "+41 43 366 40 90",
    "website": "https://zahnarztzentrum.ch/de/zahnarzt/uster.html"
  },
  {
    "id": 2902783538,
    "name": "Apotheke Kempten",
    "lat": 47.3315882,
    "lon": 8.8077956,
    "type": "Apotheke",
    "address": "Bahnhofstrasse",
    "city": "Zürich",
    "phone": "+41 449 300 280",
    "website": "https://www.apotheke-kempten.ch/"
  },
  {
    "id": 2902973304,
    "name": "Löwen-Apotheke",
    "lat": 47.4049414,
    "lon": 8.4022509,
    "type": "Apotheke",
    "address": "",
    "city": "Zürich",
    "phone": "",
    "website": ""
  },
  {
    "id": 2921525228,
    "name": "Bahnhof-Apotheke",
    "lat": 47.3241085,
    "lon": 8.5484968,
    "type": "Apotheke",
    "address": "Bahnhofstrasse",
    "city": "Zürich",
    "phone": "",
    "website": ""
  },
  {
    "id": 2947389219,
    "name": "Maren Michael",
    "lat": 47.269944,
    "lon": 8.8208687,
    "type": "Zahnarzt",
    "address": "",
    "city": "Zürich",
    "phone": "+41 55 243 21 21",
    "website": "https://zahnarztpraxis-bubikon.ch"
  },
  {
    "id": 2978025989,
    "name": "physio sport ag",
    "lat": 47.5926408,
    "lon": 8.678884,
    "type": "Physiotherapie",
    "address": "Landstrasse",
    "city": "Zürich",
    "phone": "+41 52 317 14 22",
    "website": "https://www.physiosport-ag.ch/"
  },
  {
    "id": 3122026716,
    "name": "Dr. med. vet. R. Schröter",
    "lat": 47.3875526,
    "lon": 8.7152556,
    "type": "Tierarzt",
    "address": "",
    "city": "Zürich",
    "phone": "",
    "website": ""
  },
  {
    "id": 3127115829,
    "name": "Bertschinger",
    "lat": 47.5014998,
    "lon": 8.7268836,
    "type": "Zahnarzt",
    "address": "Theaterstrasse",
    "city": "Zürich",
    "phone": "+41 52 203 63 63",
    "website": "https://zahnarztteam-winterthur.ch/"
  },
  {
    "id": 3159437161,
    "name": "Coop Vitality",
    "lat": 47.4187942,
    "lon": 8.3920842,
    "type": "Apotheke",
    "address": "Silbernstrasse",
    "city": "Zürich",
    "phone": "",
    "website": "https://www.coopvitality.ch/de/coop-vitality-silbern-dietikon"
  },
  {
    "id": 3172317500,
    "name": "Kleintier- und Pferdepraxis im Dorf AG",
    "lat": 47.3378418,
    "lon": 8.8569902,
    "type": "Tierarzt",
    "address": "Adetswilerstrasse",
    "city": "Zürich",
    "phone": "+41 44 939 36 90",
    "website": ""
  },
  {
    "id": 3191508710,
    "name": "Rey Hans-Ulrich",
    "lat": 47.3679299,
    "lon": 8.7817911,
    "type": "Tierarzt",
    "address": "Turmstrasse",
    "city": "Zürich",
    "phone": "+41 44 950 02 22",
    "website": ""
  },
  {
    "id": 3246024362,
    "name": "TopPharm Glattpark Apotheke",
    "lat": 47.4208575,
    "lon": 8.5579708,
    "type": "Apotheke",
    "address": "Wright-Strasse",
    "city": "Zürich",
    "phone": "",
    "website": "https://www.apotheke.ch/glattpark"
  },
  {
    "id": 3265407236,
    "name": "zahnarztzentrum.ch Dietikon",
    "lat": 47.4056514,
    "lon": 8.4049313,
    "type": "Zahnarzt",
    "address": "Bahnhofplatz",
    "city": "Zürich",
    "phone": "",
    "website": ""
  },
  {
    "id": 3314322769,
    "name": "Herren & Koch Zahnärzte",
    "lat": 47.3006005,
    "lon": 8.8369595,
    "type": "Zahnarzt",
    "address": "Untere Bahnhofstrasse",
    "city": "Zürich",
    "phone": "+41 44 937 11 85",
    "website": "https://www.zahnarzt-hinwil.ch"
  },
  {
    "id": 3324354373,
    "name": "Amavita",
    "lat": 47.3115344,
    "lon": 8.5250697,
    "type": "Apotheke",
    "address": "Albisstrasse",
    "city": "Zürich",
    "phone": "+41 58 851 32 37",
    "website": "https://www.amavita.ch/de/amavita-apotheke-sunnemart"
  },
  {
    "id": 3324442093,
    "name": "Amavita",
    "lat": 47.2771659,
    "lon": 8.449761,
    "type": "Apotheke",
    "address": "Obere Bahnhofstrasse",
    "city": "Zürich",
    "phone": "+41 58 851 32 20",
    "website": "https://www.amavita.ch/de/amavita-apotheke-affoltern-a-a"
  },
  {
    "id": 3324778715,
    "name": "Apotheke Lintheschergasse",
    "lat": 47.3751603,
    "lon": 8.5379795,
    "type": "Apotheke",
    "address": "Lintheschergasse",
    "city": "Zürich",
    "phone": "",
    "website": "https://www.pharmaservice.ch/"
  },
  {
    "id": 3441060061,
    "name": "Dr. med. dent. Walter Kunz",
    "lat": 47.3149428,
    "lon": 8.4701089,
    "type": "Zahnarzt",
    "address": "Dorfstrasse",
    "city": "Zürich",
    "phone": "+41 44 700 55 44",
    "website": ""
  },
  {
    "id": 3521842035,
    "name": "edel + weiss Zahnärzte",
    "lat": 47.444898,
    "lon": 8.6242419,
    "type": "Zahnarzt",
    "address": "Klotenerstrasse",
    "city": "Zürich",
    "phone": "",
    "website": "http://www.edel-weiss-zahnaerzte.ch/"
  },
  {
    "id": 3523102254,
    "name": "TopPharm Apotheke Höschgasse",
    "lat": 47.3577116,
    "lon": 8.5547536,
    "type": "Apotheke",
    "address": "Höschgasse",
    "city": "Zürich",
    "phone": "",
    "website": "https://www.apotheke.ch/hoeschgasse"
  },
  {
    "id": 3551593268,
    "name": "Pill Apotheke Fröhlichstrasse",
    "lat": 47.355307,
    "lon": 8.557001,
    "type": "Apotheke",
    "address": "Seefeldstrasse",
    "city": "Zürich",
    "phone": "",
    "website": "https://www.pill.ch/standorte/pill-apotheke-froehlichstrasse.html"
  },
  {
    "id": 3556713582,
    "name": "Andreaspark Tierärzte",
    "lat": 47.4143734,
    "lon": 8.5571528,
    "type": "Tierarzt",
    "address": "",
    "city": "Zürich",
    "phone": "",
    "website": ""
  },
  {
    "id": 3561848901,
    "name": "Coop Vitality",
    "lat": 47.4132145,
    "lon": 8.5407512,
    "type": "Apotheke",
    "address": "Sophie-Taeuber-Strasse",
    "city": "Zürich",
    "phone": "+41 44 310 15 26",
    "website": "https://www.coopvitality.ch/de/coop-vitality-oerlikon"
  },
  {
    "id": 3645780293,
    "name": "Apotheke Paradeplatz",
    "lat": 47.3698659,
    "lon": 8.5403094,
    "type": "Apotheke",
    "address": "Poststrasse",
    "city": "Zürich",
    "phone": "",
    "website": "https://www.apotheke.ch/paradeplatz"
  },
  {
    "id": 3657586519,
    "name": "El Arousy",
    "lat": 47.2581377,
    "lon": 8.851737,
    "type": "Zahnarzt",
    "address": "",
    "city": "Zürich",
    "phone": "",
    "website": ""
  },
  {
    "id": 3657586520,
    "name": "Kieferorthopäde Fäh",
    "lat": 47.2596554,
    "lon": 8.8503141,
    "type": "Zahnarzt",
    "address": "",
    "city": "Zürich",
    "phone": "",
    "website": ""
  },
  {
    "id": 3681157582,
    "name": "Apotheke Parkside",
    "lat": 47.3984348,
    "lon": 8.4477019,
    "type": "Apotheke",
    "address": "Ringstrasse",
    "city": "Zürich",
    "phone": "+41 44 741 59 89",
    "website": "https://www.apotheke-parkside.ch/"
  },
  {
    "id": 3776674995,
    "name": "APODRO Apotheke",
    "lat": 47.2585757,
    "lon": 8.848725,
    "type": "Apotheke",
    "address": "Bandwiesstrasse",
    "city": "Zürich",
    "phone": "+41 55 241 20 70",
    "website": "https://www.apodro.ch/%C3%BCber-uns/apodro-standorte/r%C3%BCti/"
  },
  {
    "id": 3806510697,
    "name": "BENU Apotheke",
    "lat": 47.3913118,
    "lon": 8.4892603,
    "type": "Apotheke",
    "address": "Altstetterplatz",
    "city": "Zürich",
    "phone": "",
    "website": "https://www.benu.ch/de/unsere-apotheken/benu-z%C3%BCrich-altstetten/"
  },
  {
    "id": 3815185876,
    "name": "Central Apotheke Thalwil",
    "lat": 47.2949154,
    "lon": 8.5648496,
    "type": "Apotheke",
    "address": "Gotthardstrasse",
    "city": "Zürich",
    "phone": "+41 44 720 06 92",
    "website": "https://www.apotheke-thalwil.ch/"
  },
  {
    "id": 3843294276,
    "name": "Dr. Dent. Mirjam Gaggl",
    "lat": 47.4809208,
    "lon": 8.4534983,
    "type": "Zahnarzt",
    "address": "",
    "city": "Zürich",
    "phone": "+41 44 853 22 74",
    "website": "https://www.zahnarzt-dielsdorf.ch/"
  },
  {
    "id": 3849173410,
    "name": "Bessy's Kleintierklinik",
    "lat": 47.4383641,
    "lon": 8.475683,
    "type": "Tierarzt",
    "address": "",
    "city": "Zürich",
    "phone": "",
    "website": ""
  },
  {
    "id": 3856808957,
    "name": "Rohner",
    "lat": 47.4871277,
    "lon": 8.5000037,
    "type": "Tierarzt",
    "address": "Seeblerstrasse",
    "city": "Zürich",
    "phone": "",
    "website": ""
  },
  {
    "id": 3928787884,
    "name": "dentique.",
    "lat": 47.3926013,
    "lon": 8.5387699,
    "type": "Zahnarzt",
    "address": "",
    "city": "Zürich",
    "phone": "",
    "website": "https://dentique.ch"
  },
  {
    "id": 4008942095,
    "name": "ApoDoc",
    "lat": 47.3875997,
    "lon": 8.5190909,
    "type": "Apotheke",
    "address": "Hardstrasse",
    "city": "Zürich",
    "phone": "",
    "website": "https://www.apodoc.ch/"
  },
  {
    "id": 4046629389,
    "name": "Dr. S. Girard",
    "lat": 47.502265,
    "lon": 8.7484914,
    "type": "Zahnarzt",
    "address": "Frauenfelderstrasse",
    "city": "Zürich",
    "phone": "",
    "website": "https://www.dr-girard.ch/"
  },
  {
    "id": 4081379791,
    "name": "Schulzahnklinik",
    "lat": 47.498123,
    "lon": 8.7342595,
    "type": "Zahnarzt",
    "address": "St. Gallerstrasse",
    "city": "Zürich",
    "phone": "+41 52 267 10 40",
    "website": ""
  },
  {
    "id": 4086435289,
    "name": "Kieferorthopäde",
    "lat": 47.2526808,
    "lon": 8.7687507,
    "type": "Zahnarzt",
    "address": "",
    "city": "Zürich",
    "phone": "",
    "website": ""
  },
  {
    "id": 4127859152,
    "name": "Coop Vitality",
    "lat": 47.4951245,
    "lon": 8.7580637,
    "type": "Apotheke",
    "address": "Rudolf-Diesel-Strasse",
    "city": "Zürich",
    "phone": "",
    "website": "https://www.coopvitality.ch/de/coop-vitality-winterthur"
  },
  {
    "id": 4134080247,
    "name": "Mr. Dr.med.dent. Rolf Brönnimann",
    "lat": 47.2400668,
    "lon": 8.7218051,
    "type": "Zahnarzt",
    "address": "Bahnhofstrasse",
    "city": "Zürich",
    "phone": "+41 44 926 80 80",
    "website": ""
  },
  {
    "id": 4149069913,
    "name": "Zahnarztpraxis zum Roten Schloss",
    "lat": 47.3653872,
    "lon": 8.5371241,
    "type": "Zahnarzt",
    "address": "",
    "city": "Zürich",
    "phone": "",
    "website": "https://www.zumrotenschloss.ch/"
  },
  {
    "id": 4158078965,
    "name": "Tierarztpraxis Rohr",
    "lat": 47.5216047,
    "lon": 8.7935032,
    "type": "Tierarzt",
    "address": "Dorfstrasse",
    "city": "Zürich",
    "phone": "",
    "website": "http://www.tierarztpraxis-rohr.ch/"
  },
  {
    "id": 4158078966,
    "name": "Praxis für Zahnprothetik Keller",
    "lat": 47.5215709,
    "lon": 8.7903812,
    "type": "Zahnarzt",
    "address": "",
    "city": "Zürich",
    "phone": "",
    "website": "https://www.praxis-zahnprothetik-keller.ch/"
  },
  {
    "id": 4158078968,
    "name": "Zahnarztpraxis Dr. Ovtscharov",
    "lat": 47.5258836,
    "lon": 8.7795298,
    "type": "Zahnarzt",
    "address": "Wasserfuristrasse",
    "city": "Zürich",
    "phone": "",
    "website": ""
  },
  {
    "id": 4237489698,
    "name": "Amavita",
    "lat": 47.3385069,
    "lon": 8.529885,
    "type": "Apotheke",
    "address": "Albisstrasse",
    "city": "Zürich",
    "phone": "",
    "website": "https://www.amavita.ch/de/amavita-apotheke-albisstrasse"
  },
  {
    "id": 4244047594,
    "name": "City Apotheke zur Sihlporte",
    "lat": 47.3729977,
    "lon": 8.5343196,
    "type": "Apotheke",
    "address": "Löwenstrasse",
    "city": "Zürich",
    "phone": "",
    "website": "https://www.cityapo.ch/"
  },
  {
    "id": 4244051793,
    "name": "ZurichDental",
    "lat": 47.3773666,
    "lon": 8.5383921,
    "type": "Zahnarzt",
    "address": "Bahnhofplatz",
    "city": "Zürich",
    "phone": "",
    "website": "https://www.zurichdental.ch/"
  },
  {
    "id": 4273219598,
    "name": "Coop Vitality",
    "lat": 47.4239535,
    "lon": 8.5620078,
    "type": "Apotheke",
    "address": "Boulevard Lilienthal",
    "city": "Zürich",
    "phone": "",
    "website": "https://www.coopvitality.ch/de/coop-vitality-opfikon"
  },
  {
    "id": 4329377999,
    "name": "PhysioImpact",
    "lat": 47.3458858,
    "lon": 8.6968183,
    "type": "Physiotherapie",
    "address": "Seestrasse",
    "city": "Zürich",
    "phone": "",
    "website": ""
  },
  {
    "id": 4421187955,
    "name": "Kleintierpraxis Freihof",
    "lat": 47.3049497,
    "lon": 8.591584,
    "type": "Tierarzt",
    "address": "Bahnhofstrasse",
    "city": "Zürich",
    "phone": "",
    "website": "https://www.kleintierpraxis-freihof.ch/"
  },
  {
    "id": 4424402110,
    "name": "Amavita Erlibacher-Märt",
    "lat": 47.3068942,
    "lon": 8.5905229,
    "type": "Apotheke",
    "address": "Bahnhofstrasse",
    "city": "Zürich",
    "phone": "",
    "website": "https://www.amavita.ch/de/amavita-apotheke-erlibacher-mart"
  },
  {
    "id": 4424600895,
    "name": "Bahnhof Apotheke",
    "lat": 47.3774306,
    "lon": 8.5400215,
    "type": "Apotheke",
    "address": "Bahnhofplatz",
    "city": "Zürich",
    "phone": "",
    "website": "https://www.amavita.ch/de/amavita-bahnhof-apotheke"
  },
  {
    "id": 4424939138,
    "name": "Amavita",
    "lat": 47.3773328,
    "lon": 8.5396659,
    "type": "Apotheke",
    "address": "",
    "city": "Zürich",
    "phone": "",
    "website": "https://www.amavita.ch/de/amavita-apotheke-shopville"
  },
  {
    "id": 4449610687,
    "name": "Coop Vitality",
    "lat": 47.4132392,
    "lon": 8.6182259,
    "type": "Apotheke",
    "address": "Industriestrasse",
    "city": "Zürich",
    "phone": "",
    "website": "https://www.coopvitality.ch/de/coop-vitality-dietlikon"
  },
  {
    "id": 4472240069,
    "name": "Amavita Oberengstringen",
    "lat": 47.4086895,
    "lon": 8.4628644,
    "type": "Apotheke",
    "address": "",
    "city": "Zürich",
    "phone": "",
    "website": "https://www.amavita.ch/de/amavita-apotheke-oberengstringen"
  },
  {
    "id": 4486137538,
    "name": "Dropa Rosenberg",
    "lat": 47.5184636,
    "lon": 8.7207459,
    "type": "Apotheke",
    "address": "Schaffhauserstrasse",
    "city": "Zürich",
    "phone": "",
    "website": "https://dropa.ch/standorte/dropa-drogerie-apotheke-rosenberg"
  },
  {
    "id": 4492758092,
    "name": "Zentrum Apotheke",
    "lat": 47.4227487,
    "lon": 8.6187655,
    "type": "Apotheke",
    "address": "Bahnhofstrasse",
    "city": "Zürich",
    "phone": "+41 44 833 46 00",
    "website": ""
  },
  {
    "id": 4512105546,
    "name": "Bahnhof Apotheke Oerlikon",
    "lat": 47.4117347,
    "lon": 8.5431816,
    "type": "Apotheke",
    "address": "",
    "city": "Zürich",
    "phone": "+41 44 364 44 44",
    "website": "https://achillea.ch/standorte/bahnhof-apotheke-oerlikon"
  },
  {
    "id": 4614699105,
    "name": "PhysioZüriWest",
    "lat": 47.3895533,
    "lon": 8.4949406,
    "type": "Physiotherapie",
    "address": "Hohlstrasse",
    "city": "Zürich",
    "phone": "+41 44 554 90 66",
    "website": "https://www.physiozueriwest.ch/"
  },
  {
    "id": 4718203059,
    "name": "Glattpark Zahnärztliches Team",
    "lat": 47.4233759,
    "lon": 8.5620904,
    "type": "Zahnarzt",
    "address": "",
    "city": "Zürich",
    "phone": "+41 44 811 16 16",
    "website": "https://www.zz-glattpark.ch/"
  },
  {
    "id": 4734683647,
    "name": "Drogerie Apotheke am Stadtplatz",
    "lat": 47.4498338,
    "lon": 8.5827866,
    "type": "Apotheke",
    "address": "",
    "city": "Zürich",
    "phone": "",
    "website": "https://www.am-stadtplatz.ch/"
  },
  {
    "id": 4771009574,
    "name": "Riekenmann",
    "lat": 47.352181,
    "lon": 8.7187229,
    "type": "Zahnarzt",
    "address": "Oberlandstrasse",
    "city": "Zürich",
    "phone": "",
    "website": ""
  },
  {
    "id": 4816325328,
    "name": "Physiozentrum",
    "lat": 47.5003003,
    "lon": 8.7247378,
    "type": "Physiotherapie",
    "address": "",
    "city": "Zürich",
    "phone": "",
    "website": "https://www.physiozentrum.ch/winterthur/"
  },
  {
    "id": 4816412576,
    "name": "TopPharm Apotheke Wülflingen",
    "lat": 47.5106864,
    "lon": 8.6935837,
    "type": "Apotheke",
    "address": "Wülflingerstrasse",
    "city": "Zürich",
    "phone": "",
    "website": "https://www.apotheke.ch/wuelflingen"
  },
  {
    "id": 4820529014,
    "name": "Tierakupunktur-Praxis",
    "lat": 47.4079613,
    "lon": 8.6824245,
    "type": "Tierarzt",
    "address": "",
    "city": "Zürich",
    "phone": "",
    "website": "https://www.tierakupunktur-praxis.ch/"
  },
  {
    "id": 4827130154,
    "name": "Neumarkt Apotheke Drogerie",
    "lat": 47.388597,
    "lon": 8.4874205,
    "type": "Apotheke",
    "address": "Altstetterstrasse",
    "city": "Zürich",
    "phone": "",
    "website": "https://achillea.ch/standorte/neumarkt-apotheke-drogerie"
  },
  {
    "id": 4827130161,
    "name": "Medbase Apotheke Enge",
    "lat": 47.364617,
    "lon": 8.5312481,
    "type": "Apotheke",
    "address": "Tessinerplatz",
    "city": "Zürich",
    "phone": "",
    "website": "https://www.topwell.ch/medbaseapothekezuerichenge/"
  },
  {
    "id": 4827853628,
    "name": "Zum Graf",
    "lat": 47.2698196,
    "lon": 8.823917,
    "type": "Tierarzt",
    "address": "",
    "city": "Zürich",
    "phone": "+41 55 243 10 10",
    "website": "https://www.tierarzt-bubikon.ch"
  },
  {
    "id": 4833061534,
    "name": "Medbase Apotheke",
    "lat": 47.3783532,
    "lon": 8.5396557,
    "type": "Apotheke",
    "address": "",
    "city": "Zürich",
    "phone": "",
    "website": "https://www.medbase-apotheken.ch/apotheken/detail/medbase-apotheke-zuerich-hb/"
  },
  {
    "id": 4833061552,
    "name": "Swiss Smile",
    "lat": 47.3772946,
    "lon": 8.5388314,
    "type": "Zahnarzt",
    "address": "",
    "city": "Zürich",
    "phone": "",
    "website": ""
  },
  {
    "id": 4833061651,
    "name": "Amavita",
    "lat": 47.3753709,
    "lon": 8.5359571,
    "type": "Apotheke",
    "address": "Löwenstrasse",
    "city": "Zürich",
    "phone": "",
    "website": "https://www.amavita.ch/de/amavita-apotheke-lowenstrasse-zurich"
  },
  {
    "id": 4833061652,
    "name": "Amavita Glattzentrum",
    "lat": 47.4086088,
    "lon": 8.5949993,
    "type": "Apotheke",
    "address": "Neue Winterthurerstrasse",
    "city": "Zürich",
    "phone": "",
    "website": "https://www.amavita.ch/de/amavita-apotheke-glattzentrum"
  },
  {
    "id": 4833061653,
    "name": "Amavita Neumarkt Oerlikon",
    "lat": 47.4103326,
    "lon": 8.5426915,
    "type": "Apotheke",
    "address": "Hofwiesenstrasse",
    "city": "Zürich",
    "phone": "",
    "website": "https://www.amavita.ch/de/amavita-apotheke-neumarkt-oerlikon"
  },
  {
    "id": 4833061654,
    "name": "Amavita",
    "lat": 47.3666096,
    "lon": 8.5488847,
    "type": "Apotheke",
    "address": "",
    "city": "Zürich",
    "phone": "",
    "website": "https://www.amavita.ch/de/amavita-apotheke-drogerie-stadelhofen"
  },
  {
    "id": 4838594348,
    "name": "bestsmile",
    "lat": 47.3884358,
    "lon": 8.4870949,
    "type": "Zahnarzt",
    "address": "Altstetterstrasse",
    "city": "Zürich",
    "phone": "",
    "website": "https://bestsmile.com/de/standorte/zuerich-altstetten/"
  },
  {
    "id": 4838594381,
    "name": "Dropa Affoltern",
    "lat": 47.420051,
    "lon": 8.5081901,
    "type": "Apotheke",
    "address": "In Böden",
    "city": "Zürich",
    "phone": "",
    "website": "https://dropa.ch/standorte/dropa-drogerie-apotheke-zuerich-affoltern"
  },
  {
    "id": 4838594382,
    "name": "St. Peter Apotheke",
    "lat": 47.371089,
    "lon": 8.538021,
    "type": "Apotheke",
    "address": "St. Peterstrasse",
    "city": "Zürich",
    "phone": "",
    "website": "https://www.stpeter-apotheke.com/"
  },
  {
    "id": 4838594389,
    "name": "Coop Vitality",
    "lat": 47.3575868,
    "lon": 8.5235872,
    "type": "Apotheke",
    "address": "",
    "city": "Zürich",
    "phone": "",
    "website": "https://www.coopvitality.ch/de/coop-vitality-sihl-city"
  },
  {
    "id": 4838594392,
    "name": "Coop Vitality",
    "lat": 47.413105,
    "lon": 8.5926609,
    "type": "Apotheke",
    "address": "Bahnhofplatz",
    "city": "Zürich",
    "phone": "",
    "website": "https://www.coopvitality.ch/de/coop-vitality-wallisellen"
  },
  {
    "id": 4838594393,
    "name": "Benu",
    "lat": 47.3638878,
    "lon": 8.5488655,
    "type": "Apotheke",
    "address": "Seefeldstrasse",
    "city": "Zürich",
    "phone": "",
    "website": "https://www.benu.ch/de/pharmacies/kreuz/"
  },
  {
    "id": 4838594394,
    "name": "TopPharm",
    "lat": 47.3782355,
    "lon": 8.5344703,
    "type": "Apotheke",
    "address": "Europaallee",
    "city": "Zürich",
    "phone": "+41 44 810 20 00",
    "website": "https://www.apotheke.ch/europaallee"
  },
  {
    "id": 4838594395,
    "name": "Medbase Apotheke Wiedikon",
    "lat": 47.3699367,
    "lon": 8.5191554,
    "type": "Apotheke",
    "address": "Birmensdorferstrasse",
    "city": "Zürich",
    "phone": "",
    "website": "https://www.topwell.ch/medbaseapothekezuerichwiedikon/"
  },
  {
    "id": 4838594396,
    "name": "Medbase Apotheke Kreis 12",
    "lat": 47.4039056,
    "lon": 8.5725439,
    "type": "Apotheke",
    "address": "Winterthurerstrasse",
    "city": "Zürich",
    "phone": "",
    "website": "https://www.medbase-apotheken.ch/apotheken/detail/medbase-apotheke-zuerich-kreis-12"
  },
  {
    "id": 4838594398,
    "name": "Triemli-Apotheke & Drogerie",
    "lat": 47.3683094,
    "lon": 8.4949064,
    "type": "Apotheke",
    "address": "Triemlistrasse",
    "city": "Zürich",
    "phone": "+41 44 463 15 33",
    "website": "https://www.triemli-apotheke.ch/"
  },
  {
    "id": 4844260108,
    "name": "Physiotherapie Wülflingen",
    "lat": 47.5098811,
    "lon": 8.6921033,
    "type": "Physiotherapie",
    "address": "",
    "city": "Zürich",
    "phone": "",
    "website": ""
  },
  {
    "id": 4844289763,
    "name": "Zahnprotetik",
    "lat": 47.5063843,
    "lon": 8.7133763,
    "type": "Zahnarzt",
    "address": "",
    "city": "Zürich",
    "phone": "",
    "website": ""
  },
  {
    "id": 4847919194,
    "name": "Apotheke Zürichberg",
    "lat": 47.3768877,
    "lon": 8.5600828,
    "type": "Apotheke",
    "address": "Zürichbergstrasse",
    "city": "Zürich",
    "phone": "",
    "website": "https://www.apothekezuerichberg.ch/"
  },
  {
    "id": 4847919195,
    "name": "Apotheke Fluntern",
    "lat": 47.376313,
    "lon": 8.5590941,
    "type": "Apotheke",
    "address": "Vorderberg",
    "city": "Zürich",
    "phone": "",
    "website": "https://www.apothekefluntern-zuerich.ch/"
  },
  {
    "id": 4848816877,
    "name": "Pelikan Apotheke",
    "lat": 47.3715818,
    "lon": 8.5367336,
    "type": "Apotheke",
    "address": "Pelikanstrasse",
    "city": "Zürich",
    "phone": "",
    "website": "https://www.pelikan-apotheke.ch/"
  },
  {
    "id": 4866433276,
    "name": "Apotheke Medzentrum Pfungen",
    "lat": 47.516373,
    "lon": 8.6482185,
    "type": "Apotheke",
    "address": "Riedäckerstrasse",
    "city": "Zürich",
    "phone": "+41 52 305 03 50",
    "website": "https://medzentrum.ch/apotheke/"
  },
  {
    "id": 4866433278,
    "name": "Zahnarztpraxis Neftenbach/Pfungen",
    "lat": 47.5163796,
    "lon": 8.6480528,
    "type": "Zahnarzt",
    "address": "Riedäckerstrasse",
    "city": "Zürich",
    "phone": "",
    "website": ""
  },
  {
    "id": 4896763911,
    "name": "Apotheke Dr. Kunz",
    "lat": 47.4841452,
    "lon": 8.4661106,
    "type": "Apotheke",
    "address": "",
    "city": "Zürich",
    "phone": "+41 44 853 42 74",
    "website": "https://www.apothekedrkunz.ch/"
  },
  {
    "id": 4912996195,
    "name": "Apotheke Drogerie Brunaupark",
    "lat": 47.3582478,
    "lon": 8.5179841,
    "type": "Apotheke",
    "address": "Giesshübelstrasse",
    "city": "Zürich",
    "phone": "",
    "website": "https://www.apotheke-drogerie-brunaupark.ch/"
  },
  {
    "id": 4948524172,
    "name": "Physiotherapie Wiedikon",
    "lat": 47.3688891,
    "lon": 8.5087783,
    "type": "Physiotherapie",
    "address": "",
    "city": "Zürich",
    "phone": "",
    "website": ""
  },
  {
    "id": 4985488548,
    "name": "Zahnarztpraxis Dr. Molnar AG",
    "lat": 47.2516692,
    "lon": 8.7711865,
    "type": "Zahnarzt",
    "address": "Poststrasse",
    "city": "Zürich",
    "phone": "+41 55 244 20 67",
    "website": "https://hombrechtikon-zahnarzt.ch/"
  },
  {
    "id": 4995399481,
    "name": "Coop Vitality",
    "lat": 47.500548,
    "lon": 8.7257688,
    "type": "Apotheke",
    "address": "Bankstrasse",
    "city": "Zürich",
    "phone": "+41 58 878 86 90",
    "website": "https://www.coopvitality.ch/de/coop-vitality-stadtgarten-winterthur"
  },
  {
    "id": 5026288949,
    "name": "Coop Vitality",
    "lat": 47.3862582,
    "lon": 8.4994562,
    "type": "Apotheke",
    "address": "Baslerstrasse",
    "city": "Zürich",
    "phone": "",
    "website": "https://www.coopvitality.ch/de/coop-vitality-letzipark"
  },
  {
    "id": 5028149190,
    "name": "Rehab - Physiotherapie",
    "lat": 47.409563,
    "lon": 8.53828,
    "type": "Physiotherapie",
    "address": "Oleanderstrasse",
    "city": "Zürich",
    "phone": "",
    "website": ""
  },
  {
    "id": 5028197930,
    "name": "zahnarztzentrum.ch Oerlikon",
    "lat": 47.4097009,
    "lon": 8.5449668,
    "type": "Zahnarzt",
    "address": "Edisonstrasse",
    "city": "Zürich",
    "phone": "+41 43 288 40 10",
    "website": "https://zahnarztzentrum.ch/de/zuerich/oerlikon.html"
  },
  {
    "id": 5031631722,
    "name": "Kleintierpraxis Burlet",
    "lat": 47.4512392,
    "lon": 8.5309158,
    "type": "Tierarzt",
    "address": "",
    "city": "Zürich",
    "phone": "+41 44 818 02 09",
    "website": ""
  },
  {
    "id": 5053656695,
    "name": "Good Life",
    "lat": 47.4099291,
    "lon": 8.4053428,
    "type": "Physiotherapie",
    "address": "",
    "city": "Zürich",
    "phone": "",
    "website": ""
  },
  {
    "id": 5067122621,
    "name": "Kleintierpraxis Letzi AG",
    "lat": 47.3735462,
    "lon": 8.4946409,
    "type": "Tierarzt",
    "address": "",
    "city": "Zürich",
    "phone": "+41 44 405 90 00",
    "website": "https://kleintierpraxis-letzi.ch/"
  },
  {
    "id": 5078190897,
    "name": "Zahnarztpraxis Binz",
    "lat": 47.3612115,
    "lon": 8.5175372,
    "type": "Zahnarzt",
    "address": "Uetlibergstrasse",
    "city": "Zürich",
    "phone": "",
    "website": "https://www.dr-scholpp.ch/"
  },
  {
    "id": 5080302185,
    "name": "APODRO Apotheke",
    "lat": 47.3677812,
    "lon": 8.6797796,
    "type": "Apotheke",
    "address": "Burstwiesenstrasse",
    "city": "Zürich",
    "phone": "+41 44 994 39 93",
    "website": "https://www.apodro.ch/%C3%BCber-uns/apodro-standorte/greifensee/"
  },
  {
    "id": 5104829947,
    "name": "Physiotherapie Steenwinckel",
    "lat": 47.3212906,
    "lon": 8.7960818,
    "type": "Physiotherapie",
    "address": "",
    "city": "Zürich",
    "phone": "",
    "website": ""
  },
  {
    "id": 5111142676,
    "name": "Physiozentrum Wetzikon",
    "lat": 47.3263197,
    "lon": 8.7974205,
    "type": "Physiotherapie",
    "address": "Kirchgasse",
    "city": "Zürich",
    "phone": "",
    "website": "https://www.physiozentrum.ch/wetzikon/massage/"
  },
  {
    "id": 5132850083,
    "name": "Dr. Kunz",
    "lat": 47.399918,
    "lon": 8.4415944,
    "type": "Apotheke",
    "address": "Goldschlägiplatz",
    "city": "Zürich",
    "phone": "+41 43 543 80 20",
    "website": "https://www.apothekedrkunz.ch/schlieren/"
  },
  {
    "id": 5161317721,
    "name": "Physiotherapie Dübendorf",
    "lat": 47.3965698,
    "lon": 8.6207304,
    "type": "Physiotherapie",
    "address": "",
    "city": "Zürich",
    "phone": "",
    "website": ""
  },
  {
    "id": 5188816950,
    "name": "Central Apotheke",
    "lat": 47.2602777,
    "lon": 8.5987164,
    "type": "Apotheke",
    "address": "Dorfgasse",
    "city": "Zürich",
    "phone": "",
    "website": ""
  },
  {
    "id": 5188816957,
    "name": "TopPharm Apotheke zum Erzberg",
    "lat": 47.2590767,
    "lon": 8.5984065,
    "type": "Apotheke",
    "address": "Zugerstrasse",
    "city": "Zürich",
    "phone": "",
    "website": "https://www.apotheke.ch/erzberg"
  },
  {
    "id": 5274359352,
    "name": "Sun Store",
    "lat": 47.5097634,
    "lon": 8.5403023,
    "type": "Apotheke",
    "address": "Feldstrasse",
    "city": "Zürich",
    "phone": "",
    "website": "https://www.sunstore.ch/"
  },
  {
    "id": 5282136025,
    "name": "Physiotherapie Wyland",
    "lat": 47.6322344,
    "lon": 8.6573432,
    "type": "Physiotherapie",
    "address": "",
    "city": "Zürich",
    "phone": "",
    "website": ""
  },
  {
    "id": 5326001890,
    "name": "Adent Oerlikon",
    "lat": 47.4194107,
    "lon": 8.5565464,
    "type": "Zahnarzt",
    "address": "Schärenmoosstrasse",
    "city": "Zürich",
    "phone": "+41 44 441 74 20",
    "website": "https://adent.ch/de/klinik/zurich/"
  },
  {
    "id": 5384559408,
    "name": "Zahnfee 2.8",
    "lat": 47.3667628,
    "lon": 8.5313389,
    "type": "Zahnarzt",
    "address": "Parkring",
    "city": "Zürich",
    "phone": "+41 44 322 28 00",
    "website": "https://www.zahnfee28.ch"
  },
  {
    "id": 5397022091,
    "name": "Physiotherapie ZüriOberland",
    "lat": 47.2749425,
    "lon": 8.8196703,
    "type": "Physiotherapie",
    "address": "",
    "city": "Zürich",
    "phone": "+41 44 578 17 17",
    "website": "https://www.physiotherapie-zo.ch/"
  },
  {
    "id": 5448871700,
    "name": "Kleintierpraxis Susi & Strolch",
    "lat": 47.3245594,
    "lon": 8.4691216,
    "type": "Tierarzt",
    "address": "Im Heumoos",
    "city": "Zürich",
    "phone": "",
    "website": ""
  },
  {
    "id": 5464829039,
    "name": "Pill Apotheke im Dorf",
    "lat": 47.421482,
    "lon": 8.4099964,
    "type": "Apotheke",
    "address": "Poststrasse",
    "city": "Zürich",
    "phone": "",
    "website": "https://www.pill.ch/standorte/pill-apotheke-im-dorf.html"
  },
  {
    "id": 5505575821,
    "name": "Therapiezentrum HandinHand",
    "lat": 47.3777598,
    "lon": 8.5110504,
    "type": "Physiotherapie",
    "address": "Badenerstrasse",
    "city": "Zürich",
    "phone": "",
    "website": "https://www.therapiezentrum.ch/"
  },
  {
    "id": 5563875748,
    "name": "Physiotherapie Hillenaar & Franconi",
    "lat": 47.4068684,
    "lon": 8.4631693,
    "type": "Physiotherapie",
    "address": "Kirchweg",
    "city": "Zürich",
    "phone": "",
    "website": ""
  },
  {
    "id": 5791885830,
    "name": "Apotheke Hotz",
    "lat": 47.3184226,
    "lon": 8.5816755,
    "type": "Apotheke",
    "address": "",
    "city": "Zürich",
    "phone": "+41 44 910 04 04",
    "website": "https://www.apotheke-hotz.ch/"
  },
  {
    "id": 5801470556,
    "name": "Zahnarztpraxis Buchegg",
    "lat": 47.3974437,
    "lon": 8.5328897,
    "type": "Zahnarzt",
    "address": "Bucheggstrasse",
    "city": "Zürich",
    "phone": "+41 44 211 54 54",
    "website": "https://zahnarztpraxis-buchegg.ch/"
  },
  {
    "id": 5827777271,
    "name": "Zahnarzt Egger",
    "lat": 47.4992862,
    "lon": 8.4146598,
    "type": "Zahnarzt",
    "address": "",
    "city": "Zürich",
    "phone": "+41 44 856 16 64",
    "website": "https://www.roland-egger.ch/"
  },
  {
    "id": 5837045904,
    "name": "Rike",
    "lat": 47.4291342,
    "lon": 8.686936,
    "type": "Apotheke",
    "address": "",
    "city": "Zürich",
    "phone": "",
    "website": ""
  },
  {
    "id": 5875816287,
    "name": "Zahnmedizin Zürich Nord",
    "lat": 47.4052823,
    "lon": 8.5730693,
    "type": "Zahnarzt",
    "address": "Herzogenmühlestrasse",
    "city": "Zürich",
    "phone": "+41 44 325 15 05",
    "website": "https://www.zahnmedizin-zuerich.ch/"
  },
  {
    "id": 5896615329,
    "name": "Massage-Praxis & Rückentherapie",
    "lat": 47.4139382,
    "lon": 8.5582732,
    "type": "Physiotherapie",
    "address": "Hagenholzstrasse",
    "city": "Zürich",
    "phone": "+41 43 536 84 82",
    "website": "http://www.massage-oerlikon.ch/"
  },
  {
    "id": 6008169101,
    "name": "Wildbach Apotheke",
    "lat": 47.5086319,
    "lon": 8.5937021,
    "type": "Apotheke",
    "address": "Dorfstrasse",
    "city": "Zürich",
    "phone": "",
    "website": ""
  },
  {
    "id": 6082237527,
    "name": "Tierärzte Neuwiesen AG",
    "lat": 47.3464874,
    "lon": 8.7270875,
    "type": "Tierarzt",
    "address": "Aathalstrasse",
    "city": "Zürich",
    "phone": "",
    "website": "https://www.praxis-neuwiesen.ch/"
  },
  {
    "id": 6082395964,
    "name": "Flavio Cassani",
    "lat": 47.3511478,
    "lon": 8.7155121,
    "type": "Zahnarzt",
    "address": "Amtsstrasse",
    "city": "Zürich",
    "phone": "",
    "website": "https://zahnarztcassani.ch/"
  },
  {
    "id": 6082395965,
    "name": "Jörg Radzikowski",
    "lat": 47.3514076,
    "lon": 8.7157184,
    "type": "Zahnarzt",
    "address": "Amtsstrasse",
    "city": "Zürich",
    "phone": "",
    "website": "https://www.happy-smile.ch/"
  },
  {
    "id": 6168941820,
    "name": "Dr.med.dent. Christoph Renker",
    "lat": 47.349013,
    "lon": 8.7185651,
    "type": "Zahnarzt",
    "address": "Bahnhofstrasse",
    "city": "Zürich",
    "phone": "+41 44 940 55 77",
    "website": "https://www.zahnarztpraxis-uster.ch"
  },
  {
    "id": 6172808959,
    "name": "Fontolliet Zahnärzte",
    "lat": 47.2590691,
    "lon": 8.6034382,
    "type": "Zahnarzt",
    "address": "Seestrasse",
    "city": "Zürich",
    "phone": "",
    "website": ""
  },
  {
    "id": 6191660982,
    "name": "Vitalis",
    "lat": 47.2743473,
    "lon": 8.4463494,
    "type": "Apotheke",
    "address": "Büelstrasse",
    "city": "Zürich",
    "phone": "+41 44 761 87 61",
    "website": "https://vitalis-apotheke.ch/"
  },
  {
    "id": 6205775262,
    "name": "Tierklinik Oberland",
    "lat": 47.3951938,
    "lon": 8.8547065,
    "type": "Tierarzt",
    "address": "Sunnehofstrasse",
    "city": "Zürich",
    "phone": "+41 52 386 30 00",
    "website": "https://www.tierklinik-oberland.ch/"
  },
  {
    "id": 6230843266,
    "name": "Frau Dr. med. dent. Heike Schwider",
    "lat": 47.2446902,
    "lon": 8.7282448,
    "type": "Zahnarzt",
    "address": "",
    "city": "Zürich",
    "phone": "+41 44 926 26 04",
    "website": "https://www.zahnarztpraxis-staefa.ch/"
  },
  {
    "id": 6237764958,
    "name": "Physio Goethezentrum",
    "lat": 47.2408353,
    "lon": 8.7241821,
    "type": "Physiotherapie",
    "address": "Goethestrasse",
    "city": "Zürich",
    "phone": "+41 43 477 06 27",
    "website": "https://goethephysio.com/"
  },
  {
    "id": 6237790798,
    "name": "Physiotherapie, Naturheilkunde Eva Ingold Ehrisman",
    "lat": 47.234618,
    "lon": 8.7395535,
    "type": "Physiotherapie",
    "address": "",
    "city": "Zürich",
    "phone": "+41 44 926 78 38",
    "website": "http://www.praxis-ingold.ch/"
  },
  {
    "id": 6321267419,
    "name": "Physio Team",
    "lat": 47.2552895,
    "lon": 8.6109686,
    "type": "Physiotherapie",
    "address": "Seestrasse",
    "city": "Zürich",
    "phone": "",
    "website": ""
  },
  {
    "id": 6335861086,
    "name": "Kleintierpraxis Zentrum",
    "lat": 47.4226158,
    "lon": 8.6188682,
    "type": "Tierarzt",
    "address": "Bahnhofstrasse",
    "city": "Zürich",
    "phone": "+41 44 805 39 39",
    "website": "https://www.kleintierpraxis-zentrum.ch/"
  },
  {
    "id": 6352972229,
    "name": "Leutert",
    "lat": 47.2713513,
    "lon": 8.6424998,
    "type": "Zahnarzt",
    "address": "",
    "city": "Zürich",
    "phone": "",
    "website": ""
  },
  {
    "id": 6390221846,
    "name": "Smile To Win",
    "lat": 47.363719,
    "lon": 8.5566439,
    "type": "Zahnarzt",
    "address": "Forchstrasse",
    "city": "Zürich",
    "phone": "+41 44 422 21 31",
    "website": "https://smiletowin.com/"
  },
  {
    "id": 6404607116,
    "name": "Kleintierpraxis Katja Rech",
    "lat": 47.3587648,
    "lon": 8.5863493,
    "type": "Tierarzt",
    "address": "",
    "city": "Zürich",
    "phone": "",
    "website": "https://kleintierpraxis-rech.ch/"
  },
  {
    "id": 6424133494,
    "name": "Physio Zentrum",
    "lat": 47.4100532,
    "lon": 8.5967997,
    "type": "Physiotherapie",
    "address": "Richtiarkade",
    "city": "Zürich",
    "phone": "",
    "website": "https://www.physiozentrum.ch/"
  },
  {
    "id": 6425524183,
    "name": "Groebli & Groebli",
    "lat": 47.5017784,
    "lon": 8.7262655,
    "type": "Physiotherapie",
    "address": "Merkurstrasse",
    "city": "Zürich",
    "phone": "+41 52 203 14 03",
    "website": "https://www.groebliundgroebli.ch/"
  },
  {
    "id": 6445018251,
    "name": "Waldegg Rotpunkt Apotheke",
    "lat": 47.3684193,
    "lon": 8.4628225,
    "type": "Apotheke",
    "address": "Zürcherstrasse",
    "city": "Zürich",
    "phone": "+41 44 211 77 22",
    "website": "https://www.waldegg-apotheke.ch/"
  },
  {
    "id": 6539263032,
    "name": "Dr. med. vet. N. Kipfer Kleintierchirurgie",
    "lat": 47.3025246,
    "lon": 8.6885279,
    "type": "Tierarzt",
    "address": "Forchstrasse",
    "city": "Zürich",
    "phone": "+41 44 440 28 28",
    "website": "https://www.tierarztkipfer.ch/"
  },
  {
    "id": 6721663777,
    "name": "Hirsig",
    "lat": 47.2943147,
    "lon": 8.5639178,
    "type": "Apotheke",
    "address": "",
    "city": "Zürich",
    "phone": "+41 44 720 06 18",
    "website": "https://www.drogeriehirsig.ch/"
  },
  {
    "id": 6780570785,
    "name": "Igelzentrum",
    "lat": 47.4148401,
    "lon": 8.562071,
    "type": "Tierarzt",
    "address": "",
    "city": "Zürich",
    "phone": "+41 44 362 0203",
    "website": "https://www.igelzentrum.ch/"
  },
  {
    "id": 6819295937,
    "name": "White Smyle",
    "lat": 47.3852285,
    "lon": 8.4931742,
    "type": "Zahnarzt",
    "address": "Buckhauserstrasse",
    "city": "Zürich",
    "phone": "+41 43 931 78 74",
    "website": "https://www.whitesmyle.ch/"
  },
  {
    "id": 6819358203,
    "name": "Zahnarzt Am Bahnhof Niederhasli",
    "lat": 47.478833,
    "lon": 8.487806,
    "type": "Zahnarzt",
    "address": "",
    "city": "Zürich",
    "phone": "+41 44 850 60 30",
    "website": "https://www.andreasroth.ch/"
  },
  {
    "id": 6872093201,
    "name": "Sala Therapie & Training",
    "lat": 47.4997569,
    "lon": 8.4186693,
    "type": "Physiotherapie",
    "address": "",
    "city": "Zürich",
    "phone": "+41 44 885 10 10",
    "website": "https://www.therapie-sala.ch/"
  },
  {
    "id": 6905908320,
    "name": "THERAPIEpunkt Sünikon",
    "lat": 47.4907816,
    "lon": 8.4376224,
    "type": "Physiotherapie",
    "address": "",
    "city": "Zürich",
    "phone": "+41 43 540 65 69",
    "website": "https://www.therapiepunkt-suenikon.ch"
  },
  {
    "id": 6992608308,
    "name": "Physiotherapie Birmensdorf",
    "lat": 47.3540726,
    "lon": 8.4375191,
    "type": "Physiotherapie",
    "address": "Stallikonerstrasse",
    "city": "Zürich",
    "phone": "",
    "website": ""
  },
  {
    "id": 7001187883,
    "name": "Physiotherapie Praxis Rolf Boner",
    "lat": 47.3004969,
    "lon": 8.8398408,
    "type": "Physiotherapie",
    "address": "Bahnhofplatz",
    "city": "Zürich",
    "phone": "+41 44 937 45 16",
    "website": "http://www.physio-boner.ch/"
  },
  {
    "id": 7001306767,
    "name": "TopPharm",
    "lat": 47.3032289,
    "lon": 8.8408128,
    "type": "Apotheke",
    "address": "Zürichstrasse",
    "city": "Zürich",
    "phone": "+41 44 937 38 72",
    "website": "https://www.apotheke.ch/hinwil"
  },
  {
    "id": 7004022337,
    "name": "Active Physio",
    "lat": 47.4889585,
    "lon": 8.5029438,
    "type": "Physiotherapie",
    "address": "",
    "city": "Zürich",
    "phone": "",
    "website": "https://www.activephysio.ch/niederglatt/"
  },
  {
    "id": 7005646563,
    "name": "Kleintierpraxis Kreis 2",
    "lat": 47.3501382,
    "lon": 8.5280075,
    "type": "Tierarzt",
    "address": "",
    "city": "Zürich",
    "phone": "",
    "website": ""
  },
  {
    "id": 7006578553,
    "name": "Tierarztpraxis Schlimperg AG",
    "lat": 47.4298701,
    "lon": 8.6839135,
    "type": "Tierarzt",
    "address": "",
    "city": "Zürich",
    "phone": "",
    "website": ""
  },
  {
    "id": 7010816555,
    "name": "Dr. Manuel Faissler",
    "lat": 47.3115192,
    "lon": 8.5271954,
    "type": "Zahnarzt",
    "address": "Kronenstrasse",
    "city": "Zürich",
    "phone": "",
    "website": ""
  },
  {
    "id": 7055154597,
    "name": "Physiotherapie Hilde Berkelmans",
    "lat": 47.390464,
    "lon": 8.5402026,
    "type": "Physiotherapie",
    "address": "",
    "city": "Zürich",
    "phone": "",
    "website": ""
  },
  {
    "id": 7091058321,
    "name": "Zahnarztzentrum.ch",
    "lat": 47.3724897,
    "lon": 8.5348704,
    "type": "Zahnarzt",
    "address": "Talacker",
    "city": "Zürich",
    "phone": "",
    "website": "https://zahnarztzentrum.ch/zuerich/city"
  },
  {
    "id": 7098198699,
    "name": "Puls Apotheke & Drogerie",
    "lat": 47.3061526,
    "lon": 8.8182526,
    "type": "Apotheke",
    "address": "Wässeristrasse",
    "city": "Zürich",
    "phone": "+41 44 938 16 38",
    "website": "https://www.puls-apothekedrogerie.ch/"
  },
  {
    "id": 7107268776,
    "name": "Zahnärztliches Zentrum",
    "lat": 47.4131945,
    "lon": 8.5925479,
    "type": "Zahnarzt",
    "address": "",
    "city": "Zürich",
    "phone": "",
    "website": "https://www.zzwallisellen.ch/"
  },
  {
    "id": 7107268780,
    "name": "Medbase Apotheke Wallisellen",
    "lat": 47.4134652,
    "lon": 8.5920521,
    "type": "Apotheke",
    "address": "Bahnhofstrasse",
    "city": "Zürich",
    "phone": "",
    "website": "https://www.topwell.ch/medbaseapothekewallisellen/"
  },
  {
    "id": 7136658377,
    "name": "Kinecore",
    "lat": 47.4105542,
    "lon": 8.5348997,
    "type": "Physiotherapie",
    "address": "Affolternstrasse",
    "city": "Zürich",
    "phone": "",
    "website": "https://www.kinecore.ch"
  },
  {
    "id": 7230314196,
    "name": "Tettamanti",
    "lat": 47.2279582,
    "lon": 8.6751522,
    "type": "Zahnarzt",
    "address": "",
    "city": "Zürich",
    "phone": "+41447808849",
    "website": "https://www.danielgehrer.ch/"
  },
  {
    "id": 7266893085,
    "name": "Tierarztpraxis Marigin",
    "lat": 47.3123415,
    "lon": 8.5275713,
    "type": "Tierarzt",
    "address": "",
    "city": "Zürich",
    "phone": "+41 44 709 06 66",
    "website": "http://marigin-adliswil.ch/"
  },
  {
    "id": 7398627236,
    "name": "ValeVita",
    "lat": 47.4109786,
    "lon": 8.5910659,
    "type": "Physiotherapie",
    "address": "",
    "city": "Zürich",
    "phone": "",
    "website": ""
  },
  {
    "id": 7442531318,
    "name": "Coop Vitality",
    "lat": 47.5060901,
    "lon": 8.5416419,
    "type": "Apotheke",
    "address": "Grabenstrasse",
    "city": "Zürich",
    "phone": "",
    "website": "https://www.coopvitality.ch/de/coop-vitality-bachenbulach"
  },
  {
    "id": 7465666136,
    "name": "Zur Rose",
    "lat": 47.3855599,
    "lon": 8.5313722,
    "type": "Apotheke",
    "address": "Limmatstrasse",
    "city": "Zürich",
    "phone": "+41588101104",
    "website": "https://www.zurrose.ch/"
  },
  {
    "id": 7473206219,
    "name": "Coop Vitality",
    "lat": 47.3824856,
    "lon": 8.6678529,
    "type": "Apotheke",
    "address": "Industriestrasse",
    "city": "Zürich",
    "phone": "",
    "website": "https://www.coopvitality.ch/de/coop-vitality-volketswil-volkiland"
  },
  {
    "id": 7473358094,
    "name": "Coop Vitality",
    "lat": 47.6906516,
    "lon": 8.64741,
    "type": "Apotheke",
    "address": "Schützenstrasse",
    "city": "Zürich",
    "phone": "",
    "website": "https://www.coopvitality.ch/de/coop-vitality-feuerthalen"
  },
  {
    "id": 7480501323,
    "name": "Coop Vitality",
    "lat": 47.2965644,
    "lon": 8.5621283,
    "type": "Apotheke",
    "address": "Florastrasse",
    "city": "Zürich",
    "phone": "",
    "website": "https://www.coopvitality.ch/de/coop-vitality-thalwil"
  },
  {
    "id": 7481977776,
    "name": "Amavita Regensdorf",
    "lat": 47.4308171,
    "lon": 8.4696191,
    "type": "Apotheke",
    "address": "",
    "city": "Zürich",
    "phone": "",
    "website": "https://www.amavita.ch/de/amavita-apotheke-regensdorf"
  },
  {
    "id": 7486356363,
    "name": "Medbase Apotheke Volketswil",
    "lat": 47.388053,
    "lon": 8.681112,
    "type": "Apotheke",
    "address": "Im Zentrum",
    "city": "Zürich",
    "phone": "",
    "website": "https://www.topwell.ch/medbaseapothekevolketswil/"
  },
  {
    "id": 7489015226,
    "name": "Pill Apotheke Oberdorf",
    "lat": 47.2289896,
    "lon": 8.6679844,
    "type": "Apotheke",
    "address": "Oberdorfstrasse",
    "city": "Zürich",
    "phone": "",
    "website": "https://www.pill.ch/standorte/pill-apotheke-oberdorf.html"
  },
  {
    "id": 7489059376,
    "name": "Pill Apotheke Waldegg",
    "lat": 47.2453634,
    "lon": 8.6083379,
    "type": "Apotheke",
    "address": "Einsiedlerstrasse",
    "city": "Zürich",
    "phone": "",
    "website": "https://www.pill.ch/standorte/pill-apotheke-waldegg.html"
  },
  {
    "id": 7491764632,
    "name": "Claudia-Apotheke",
    "lat": 47.4463476,
    "lon": 8.5800949,
    "type": "Apotheke",
    "address": "Schaffhauserstrasse",
    "city": "Zürich",
    "phone": "",
    "website": "https://www.claudia-apotheke.ch/"
  },
  {
    "id": 7491989729,
    "name": "TopPharm Zentrums Apotheke",
    "lat": 47.4312086,
    "lon": 8.4687064,
    "type": "Apotheke",
    "address": "",
    "city": "Zürich",
    "phone": "",
    "website": "https://www.apotheke.ch/zentrum-regensdorf"
  },
  {
    "id": 7492114622,
    "name": "TopPharm Sonnen Apotheke",
    "lat": 47.5764678,
    "lon": 8.5218957,
    "type": "Apotheke",
    "address": "Obergass",
    "city": "Zürich",
    "phone": "",
    "website": "https://www.apotheke.ch/sonnen-eglisau"
  },
  {
    "id": 7559606223,
    "name": "Physio und Cranio am Lindberg",
    "lat": 47.5084938,
    "lon": 8.7297529,
    "type": "Physiotherapie",
    "address": "",
    "city": "Zürich",
    "phone": "",
    "website": ""
  },
  {
    "id": 7610215707,
    "name": "Sternen Apotheke",
    "lat": 47.2788414,
    "lon": 8.5754119,
    "type": "Apotheke",
    "address": "Alte Landstrasse",
    "city": "Zürich",
    "phone": "+41 44 720 10 10",
    "website": "http://www.sternen-apo.ch/"
  },
  {
    "id": 7661040781,
    "name": "Therapie \"Zelgi\"",
    "lat": 47.4015342,
    "lon": 8.3984722,
    "type": "Physiotherapie",
    "address": "",
    "city": "Zürich",
    "phone": "",
    "website": ""
  },
  {
    "id": 7730881068,
    "name": "von Reding",
    "lat": 47.2598775,
    "lon": 8.852964,
    "type": "Zahnarzt",
    "address": "",
    "city": "Zürich",
    "phone": "+41 55 240 85 86",
    "website": "https://www.zahnarzt-vonreding.ch"
  },
  {
    "id": 7820048590,
    "name": "Praxis Dr. (Ege) Ufuk Varlik",
    "lat": 47.4993729,
    "lon": 8.7232908,
    "type": "Zahnarzt",
    "address": "Bahnhofplatz",
    "city": "Zürich",
    "phone": "+4152 214 34 44",
    "website": "https://www.zahnarzt-winterthur-bahnhof.ch/"
  },
  {
    "id": 7847119854,
    "name": "Kieferorthopäde Rose",
    "lat": 47.4060396,
    "lon": 8.4033515,
    "type": "Zahnarzt",
    "address": "",
    "city": "Zürich",
    "phone": "",
    "website": "https://www.kieferorthopaede-suisse.ch"
  },
  {
    "id": 7921493637,
    "name": "Zahnarzt Zuppan",
    "lat": 47.2450061,
    "lon": 8.5325652,
    "type": "Zahnarzt",
    "address": "",
    "city": "Zürich",
    "phone": "",
    "website": ""
  },
  {
    "id": 7954984298,
    "name": "Marina Müller",
    "lat": 47.4051246,
    "lon": 8.4764219,
    "type": "Zahnarzt",
    "address": "",
    "city": "Zürich",
    "phone": "",
    "website": ""
  },
  {
    "id": 7967037966,
    "name": "Victoria Apotheke",
    "lat": 47.4491429,
    "lon": 8.5661071,
    "type": "Apotheke",
    "address": "",
    "city": "Zürich",
    "phone": "+41 44 259 80 80",
    "website": "https://www.victoria-apotheke.ch/"
  },
  {
    "id": 7977863004,
    "name": "Zahnwelt Höngg",
    "lat": 47.3992251,
    "lon": 8.5034799,
    "type": "Zahnarzt",
    "address": "",
    "city": "Zürich",
    "phone": "",
    "website": ""
  },
  {
    "id": 8078091318,
    "name": "Albis Drogerie",
    "lat": 47.2890316,
    "lon": 8.5399059,
    "type": "Apotheke",
    "address": "Neue Dorfstrasse",
    "city": "Zürich",
    "phone": "",
    "website": ""
  },
  {
    "id": 8078091320,
    "name": "Dr.med.dent. Rony Hornung",
    "lat": 47.2876193,
    "lon": 8.5367278,
    "type": "Zahnarzt",
    "address": "Mühleweg",
    "city": "Zürich",
    "phone": "",
    "website": ""
  },
  {
    "id": 8158491356,
    "name": "Easydent",
    "lat": 47.3221889,
    "lon": 8.7969728,
    "type": "Zahnarzt",
    "address": "Bahnhofstrasse",
    "city": "Zürich",
    "phone": "+41 44 930 35 91",
    "website": "https://zahnarztpraxis-easydent.ch/"
  },
  {
    "id": 8261465970,
    "name": "Physiotherapie Sunnezirkel",
    "lat": 47.5380899,
    "lon": 8.7897879,
    "type": "Physiotherapie",
    "address": "",
    "city": "Zürich",
    "phone": "",
    "website": ""
  },
  {
    "id": 8286494176,
    "name": "Bahnhof Apotheke Stettbach",
    "lat": 47.3970803,
    "lon": 8.5972908,
    "type": "Apotheke",
    "address": "",
    "city": "Zürich",
    "phone": "+41 44 244 05 05",
    "website": "https://www.bahnhof-apotheke-stettbach.ch/"
  },
  {
    "id": 8294435048,
    "name": "Newleaves Gemeinschaftspraxis",
    "lat": 47.3684662,
    "lon": 8.5511553,
    "type": "Physiotherapie",
    "address": "Zeltweg",
    "city": "Zürich",
    "phone": "",
    "website": "https://www.newleaves.ch"
  },
  {
    "id": 8399310097,
    "name": "Oberland",
    "lat": 47.3643971,
    "lon": 8.783987,
    "type": "Tierarzt",
    "address": "",
    "city": "Zürich",
    "phone": "",
    "website": ""
  },
  {
    "id": 8420173166,
    "name": "Schulzahnklinik Eggbühl",
    "lat": 47.416046,
    "lon": 8.5420728,
    "type": "Zahnarzt",
    "address": "Eggbühlstrasse",
    "city": "Zürich",
    "phone": "",
    "website": ""
  },
  {
    "id": 8420748447,
    "name": "Physiozentrum",
    "lat": 47.3969867,
    "lon": 8.5970747,
    "type": "Physiotherapie",
    "address": "",
    "city": "Zürich",
    "phone": "+41 44 303 15 15",
    "website": "https://www.physiozentrum.ch/stettbach/"
  },
  {
    "id": 8422699479,
    "name": "Peter Salmon",
    "lat": 47.5069349,
    "lon": 8.7230972,
    "type": "Zahnarzt",
    "address": "",
    "city": "Zürich",
    "phone": "",
    "website": ""
  },
  {
    "id": 8476003306,
    "name": "bestsmile",
    "lat": 47.4130768,
    "lon": 8.5473217,
    "type": "Zahnarzt",
    "address": "Andreasstrasse",
    "city": "Zürich",
    "phone": "",
    "website": "https://bestsmile.com/de/standorte/zuerich-oerlikon/"
  },
  {
    "id": 8476004446,
    "name": "bestsmile",
    "lat": 47.3738293,
    "lon": 8.5353417,
    "type": "Zahnarzt",
    "address": "Löwenstrasse",
    "city": "Zürich",
    "phone": "",
    "website": "https://bestsmile.com/de/standorte/zuerich-loewenstrasse/"
  },
  {
    "id": 8476011362,
    "name": "bestsmile",
    "lat": 47.3627365,
    "lon": 8.5315006,
    "type": "Zahnarzt",
    "address": "Seestrasse",
    "city": "Zürich",
    "phone": "",
    "website": "https://bestsmile.com/de/standorte/zuerich-enge/"
  },
  {
    "id": 8476014564,
    "name": "bestsmile",
    "lat": 47.3892888,
    "lon": 8.5207398,
    "type": "Zahnarzt",
    "address": "Hardstrasse",
    "city": "Zürich",
    "phone": "",
    "website": "https://bestsmile.com/de/standorte/zuerich-hardstrasse/"
  },
  {
    "id": 8476019283,
    "name": "bestsmile",
    "lat": 47.3678156,
    "lon": 8.5456182,
    "type": "Zahnarzt",
    "address": "Rämistrasse",
    "city": "Zürich",
    "phone": "",
    "website": "https://bestsmile.com/de/standorte/zuerich-bellevue/"
  },
  {
    "id": 8497598414,
    "name": "ZüriPharm AG",
    "lat": 47.3783858,
    "lon": 8.5504388,
    "type": "Apotheke",
    "address": "Spöndlistrasse",
    "city": "Zürich",
    "phone": "044 255 85 30",
    "website": ""
  },
  {
    "id": 8538099683,
    "name": "Zahnprothetik",
    "lat": 47.509107,
    "lon": 8.758078,
    "type": "Zahnarzt",
    "address": "",
    "city": "Zürich",
    "phone": "",
    "website": ""
  },
  {
    "id": 8568822659,
    "name": "Benu",
    "lat": 47.45252,
    "lon": 8.581108,
    "type": "Apotheke",
    "address": "",
    "city": "Zürich",
    "phone": "",
    "website": ""
  },
  {
    "id": 8595193345,
    "name": "Physio ZürichCity",
    "lat": 47.400479,
    "lon": 8.5861411,
    "type": "Physiotherapie",
    "address": "",
    "city": "Zürich",
    "phone": "+41 44 558 24 12",
    "website": "https://physiozuerichcity.ch"
  },
  {
    "id": 8628422197,
    "name": "Amavita",
    "lat": 47.4509495,
    "lon": 8.56089,
    "type": "Apotheke",
    "address": "",
    "city": "Zürich",
    "phone": "+41 58 878 25 60",
    "website": "https://www.amavita.ch/"
  },
  {
    "id": 8681092407,
    "name": "Schweizer Kieferorthopädie Zürich-Höngg",
    "lat": 47.3998703,
    "lon": 8.503934,
    "type": "Zahnarzt",
    "address": "Limmattalstrasse",
    "city": "Zürich",
    "phone": "",
    "website": ""
  },
  {
    "id": 8710988828,
    "name": "VetTrust",
    "lat": 47.3994679,
    "lon": 8.441533,
    "type": "Tierarzt",
    "address": "",
    "city": "Zürich",
    "phone": "+41 44 740 85 33",
    "website": "https://vettrust.ch/"
  },
  {
    "id": 8714560829,
    "name": "reha prime",
    "lat": 47.4210898,
    "lon": 8.5590353,
    "type": "Physiotherapie",
    "address": "",
    "city": "Zürich",
    "phone": "",
    "website": ""
  },
  {
    "id": 8822651949,
    "name": "ZMP Dental",
    "lat": 47.3613637,
    "lon": 8.5267502,
    "type": "Zahnarzt",
    "address": "Waffenplatzstrasse",
    "city": "Zürich",
    "phone": "",
    "website": ""
  },
  {
    "id": 8822651950,
    "name": "ZMP Dental",
    "lat": 47.3810089,
    "lon": 8.5421575,
    "type": "Zahnarzt",
    "address": "Stampfenbachstrasse",
    "city": "Zürich",
    "phone": "",
    "website": ""
  },
  {
    "id": 8919699602,
    "name": "APODRO Apotheke",
    "lat": 47.3008387,
    "lon": 8.8429643,
    "type": "Apotheke",
    "address": "Dürntnerstrasse",
    "city": "Zürich",
    "phone": "",
    "website": "https://www.apodro.ch/%C3%BCber-uns/apodro-standorte/hinwil/"
  },
  {
    "id": 8990506178,
    "name": "Feel Fit",
    "lat": 47.3118956,
    "lon": 8.5252334,
    "type": "Physiotherapie",
    "address": "Florastrasse",
    "city": "Zürich",
    "phone": "+41 44 710 51 40",
    "website": "https://feel-fit.ch/"
  },
  {
    "id": 9009987972,
    "name": "Müller - Kieferorthopädie",
    "lat": 47.3272103,
    "lon": 8.802215,
    "type": "Zahnarzt",
    "address": "Bachtelstrasse",
    "city": "Zürich",
    "phone": "+41 44 970 11 88",
    "website": "https://www.mkfo.ch"
  },
  {
    "id": 9053261285,
    "name": "Dental Art",
    "lat": 47.4020154,
    "lon": 8.4018948,
    "type": "Zahnarzt",
    "address": "",
    "city": "Zürich",
    "phone": "",
    "website": ""
  },
  {
    "id": 9066002738,
    "name": "LifeDent",
    "lat": 47.490074,
    "lon": 8.7582859,
    "type": "Zahnarzt",
    "address": "Seenerstrasse",
    "city": "Zürich",
    "phone": "",
    "website": "https://lifedent.ch/zahnarzt-winterthur-seen/"
  },
  {
    "id": 9091866237,
    "name": "Physiotherapie & Osteopathie",
    "lat": 47.3201063,
    "lon": 8.7932713,
    "type": "Physiotherapie",
    "address": "Bahnhofstrasse",
    "city": "Zürich",
    "phone": "+41 43 477 55 00",
    "website": "https://www.physio-gossau.ch/wetzikon/"
  },
  {
    "id": 9114800907,
    "name": "Tierpraxis zur Schmiede",
    "lat": 47.5616655,
    "lon": 8.6810285,
    "type": "Tierarzt",
    "address": "",
    "city": "Zürich",
    "phone": "",
    "website": ""
  },
  {
    "id": 9164241188,
    "name": "SaniMana Gesundheitspraxis",
    "lat": 47.5302509,
    "lon": 8.4675456,
    "type": "Physiotherapie",
    "address": "Truttwisenstrasse",
    "city": "Zürich",
    "phone": "",
    "website": "https://www.sanimana.ch"
  },
  {
    "id": 9164343503,
    "name": "Physiotherapie Ettlin",
    "lat": 47.4138147,
    "lon": 8.5229772,
    "type": "Physiotherapie",
    "address": "Binzmühlestrasse",
    "city": "Zürich",
    "phone": "",
    "website": "https://www.physio-ettlin.ch"
  },
  {
    "id": 9312988330,
    "name": "Dr. med. dent. Ch. Schädle",
    "lat": 47.2942584,
    "lon": 8.5640026,
    "type": "Zahnarzt",
    "address": "Alte Landstrasse",
    "city": "Zürich",
    "phone": "",
    "website": ""
  },
  {
    "id": 9312988336,
    "name": "Gesundheitspark Thalwil",
    "lat": 47.2942288,
    "lon": 8.5639815,
    "type": "Physiotherapie",
    "address": "Alte Landstrasse",
    "city": "Zürich",
    "phone": "",
    "website": ""
  },
  {
    "id": 9318316471,
    "name": "Zahnarztpraxis Dr. Nadine Fenner",
    "lat": 47.3995906,
    "lon": 8.6222668,
    "type": "Zahnarzt",
    "address": "",
    "city": "Zürich",
    "phone": "+41 44 821 42 33",
    "website": "https://zahnarztpraxis-fenner.ch"
  },
  {
    "id": 9368787618,
    "name": "Zahnarztpraxis Leugrueb",
    "lat": 47.3338784,
    "lon": 8.6202855,
    "type": "Zahnarzt",
    "address": "",
    "city": "Zürich",
    "phone": "",
    "website": ""
  },
  {
    "id": 9471109355,
    "name": "Physio A.R.T",
    "lat": 47.4320167,
    "lon": 8.4685613,
    "type": "Physiotherapie",
    "address": "Im Zentrum",
    "city": "Zürich",
    "phone": "+41 44 840 03 02",
    "website": "https://www.physioart-zentrum.ch/"
  },
  {
    "id": 9483006228,
    "name": "Dentanova",
    "lat": 47.3787233,
    "lon": 8.5462274,
    "type": "Zahnarzt",
    "address": "",
    "city": "Zürich",
    "phone": "",
    "website": ""
  },
  {
    "id": 9527150223,
    "name": "Tierklinik Dennler AG",
    "lat": 47.2769201,
    "lon": 8.4482583,
    "type": "Tierarzt",
    "address": "",
    "city": "Zürich",
    "phone": "+41 44 761 30 89",
    "website": "https://www.tierklinik-dennler.ch/"
  },
  {
    "id": 9527188239,
    "name": "Tierarztpraxis BirmiVet",
    "lat": 47.3498549,
    "lon": 8.4414402,
    "type": "Tierarzt",
    "address": "",
    "city": "Zürich",
    "phone": "+41 44 737 11 59",
    "website": "https://www.birmivet.ch/"
  },
  {
    "id": 9624005913,
    "name": "Zahnarztpraxis Oerlikon",
    "lat": 47.4100897,
    "lon": 8.546743,
    "type": "Zahnarzt",
    "address": "",
    "city": "Zürich",
    "phone": "",
    "website": ""
  },
  {
    "id": 9655661530,
    "name": "Bahnhof Apotheke",
    "lat": 47.4995171,
    "lon": 8.7235146,
    "type": "Apotheke",
    "address": "",
    "city": "Zürich",
    "phone": "+41522691200",
    "website": "https://achillea.ch/standorte/bahnhof-apotheke-winterthur"
  },
  {
    "id": 9672040294,
    "name": "Zahnärzte Kalt & Willi AG",
    "lat": 47.2789952,
    "lon": 8.4514412,
    "type": "Zahnarzt",
    "address": "Breitenstrasse",
    "city": "Zürich",
    "phone": "+41 44 761 95 61",
    "website": "https://www.zahnarztaffoltern.ch/"
  },
  {
    "id": 9684966930,
    "name": "Fitality physio",
    "lat": 47.5029512,
    "lon": 8.7644031,
    "type": "Physiotherapie",
    "address": "Sulzerallee",
    "city": "Zürich",
    "phone": "",
    "website": "https://www.fitality.me/physio"
  },
  {
    "id": 9800732961,
    "name": "Physiotherapie Tannenhof",
    "lat": 47.2633482,
    "lon": 8.8504771,
    "type": "Physiotherapie",
    "address": "",
    "city": "Zürich",
    "phone": "+41 55 241 31 70",
    "website": "https://www.physiotherapie-tannenhof.ch/"
  },
  {
    "id": 9800810541,
    "name": "physio.works GmbH",
    "lat": 47.2720811,
    "lon": 8.9111289,
    "type": "Physiotherapie",
    "address": "",
    "city": "Zürich",
    "phone": "+41 55 246 38 39",
    "website": "https://physio-works.ch"
  },
  {
    "id": 9800961383,
    "name": "Bodylab",
    "lat": 47.3884496,
    "lon": 8.4931211,
    "type": "Physiotherapie",
    "address": "",
    "city": "Zürich",
    "phone": "",
    "website": "https://bodylab.ch/"
  },
  {
    "id": 9828141045,
    "name": "Zahnarztpraxis Albisrieden",
    "lat": 47.3782354,
    "lon": 8.5089055,
    "type": "Zahnarzt",
    "address": "",
    "city": "Zürich",
    "phone": "+41 44 491 66 23",
    "website": "https://zahnarztalbisrieden.ch/"
  },
  {
    "id": 9831397413,
    "name": "cosmodent",
    "lat": 47.3771053,
    "lon": 8.5388908,
    "type": "Zahnarzt",
    "address": "Bahnhofplatz",
    "city": "Zürich",
    "phone": "",
    "website": "https://www.cosmodent.ch/"
  },
  {
    "id": 9870925568,
    "name": "Am Park",
    "lat": 47.3770717,
    "lon": 8.513652,
    "type": "Zahnarzt",
    "address": "",
    "city": "Zürich",
    "phone": "",
    "website": ""
  },
  {
    "id": 9890092430,
    "name": "Apotheke im KSW",
    "lat": 47.506884,
    "lon": 8.728567,
    "type": "Apotheke",
    "address": "",
    "city": "Zürich",
    "phone": "",
    "website": ""
  },
  {
    "id": 9928570521,
    "name": "Kleintierpraxis",
    "lat": 47.3518154,
    "lon": 8.6368616,
    "type": "Tierarzt",
    "address": "",
    "city": "Zürich",
    "phone": "+41 44 980 60 00",
    "website": "https://www.kleintierpraxiskeller.ch/"
  },
  {
    "id": 10046005939,
    "name": "Praxis Dielsdorf MJP",
    "lat": 47.4824281,
    "lon": 8.4559577,
    "type": "Physiotherapie",
    "address": "",
    "city": "Zürich",
    "phone": "+41 79 376 97 43",
    "website": "https://praxis-d.ch/"
  },
  {
    "id": 10056853567,
    "name": "Physiotherapie Hittnau AG",
    "lat": 47.3637259,
    "lon": 8.8256478,
    "type": "Physiotherapie",
    "address": "",
    "city": "Zürich",
    "phone": "+41 44 951 00 80",
    "website": "https://www.physio-hittnau.ch/"
  },
  {
    "id": 10098003688,
    "name": "EmbriVet Kleintierpraxis",
    "lat": 47.5087093,
    "lon": 8.5936212,
    "type": "Tierarzt",
    "address": "Dorfstrasse",
    "city": "Zürich",
    "phone": "",
    "website": ""
  },
  {
    "id": 10178186194,
    "name": "S. Göricke",
    "lat": 47.3585057,
    "lon": 8.5858919,
    "type": "Physiotherapie",
    "address": "",
    "city": "Zürich",
    "phone": "",
    "website": ""
  },
  {
    "id": 10275999734,
    "name": "Kleintierklinik Oberstrass",
    "lat": 47.381848,
    "lon": 8.5510066,
    "type": "Tierarzt",
    "address": "",
    "city": "Zürich",
    "phone": "",
    "website": ""
  },
  {
    "id": 10282768231,
    "name": "Kleintierpraxis Julius Caesar",
    "lat": 47.5011982,
    "lon": 8.7422808,
    "type": "Tierarzt",
    "address": "Römerstrasse",
    "city": "Zürich",
    "phone": "052 243 05 77",
    "website": "https://www.julius-caesar.ch/"
  },
  {
    "id": 10290585723,
    "name": "Kleintierpraxis Dr. med. vet. Anne Maurer",
    "lat": 47.4312187,
    "lon": 8.6870576,
    "type": "Tierarzt",
    "address": "",
    "city": "Zürich",
    "phone": "+41 75 412 11 51",
    "website": ""
  },
  {
    "id": 10554534541,
    "name": "Zahnarztpraxis Huber",
    "lat": 47.3003249,
    "lon": 8.8401974,
    "type": "Zahnarzt",
    "address": "",
    "city": "Zürich",
    "phone": "+41445436383",
    "website": "https://www.zahnarztpraxis-huber.ch/"
  },
  {
    "id": 10589255144,
    "name": "Marc Flückiger",
    "lat": 47.4311296,
    "lon": 8.6882368,
    "type": "Physiotherapie",
    "address": "",
    "city": "Zürich",
    "phone": "",
    "website": ""
  },
  {
    "id": 10595781834,
    "name": "Physiotherapie und Rehabilitation Kalchbühl",
    "lat": 47.3412506,
    "lon": 8.5301083,
    "type": "Physiotherapie",
    "address": "Butzenstrasse",
    "city": "Zürich",
    "phone": "+41444820432",
    "website": "https://www.physio-kalchbuehl.ch"
  },
  {
    "id": 10595781835,
    "name": "Physiotherapie und Rehabilitation Kalchbühl",
    "lat": 47.3396382,
    "lon": 8.5309377,
    "type": "Physiotherapie",
    "address": "Alte Kalchbühlstrasse",
    "city": "Zürich",
    "phone": "+41444818108",
    "website": "https://www.physio-kalchbuehl.ch"
  },
  {
    "id": 10612076030,
    "name": "Physiotherapie Glattbrugg",
    "lat": 47.4309679,
    "lon": 8.5599597,
    "type": "Physiotherapie",
    "address": "Europastrasse",
    "city": "Zürich",
    "phone": "+41445543777",
    "website": "https://physioglattbrugg.ch/"
  },
  {
    "id": 10711816622,
    "name": "Feldenkrais Fischli",
    "lat": 47.4798282,
    "lon": 8.4526161,
    "type": "Physiotherapie",
    "address": "",
    "city": "Zürich",
    "phone": "",
    "website": ""
  },
  {
    "id": 10824037837,
    "name": "Physiotherapie Kreuzplatz",
    "lat": 47.3644497,
    "lon": 8.5541783,
    "type": "Physiotherapie",
    "address": "",
    "city": "Zürich",
    "phone": "+41 44 260 95 95",
    "website": "https://www.therapiekreuzplatz.ch/"
  },
  {
    "id": 10832155261,
    "name": "Dr. Beat Gontersweiler",
    "lat": 47.3725159,
    "lon": 8.5459389,
    "type": "Zahnarzt",
    "address": "",
    "city": "Zürich",
    "phone": "",
    "website": "https://www.zahnarzt-gontersweiler.ch/"
  },
  {
    "id": 10832283799,
    "name": "Careum Dentalhygiene",
    "lat": 47.3645715,
    "lon": 8.5577474,
    "type": "Zahnarzt",
    "address": "",
    "city": "Zürich",
    "phone": "",
    "website": "https://www.careum-dentalhygiene.ch/"
  },
  {
    "id": 10882591589,
    "name": "Leuzinger",
    "lat": 47.4999176,
    "lon": 8.7272471,
    "type": "Zahnarzt",
    "address": "",
    "city": "Zürich",
    "phone": "",
    "website": ""
  },
  {
    "id": 10893221697,
    "name": "Kinezi",
    "lat": 47.3907022,
    "lon": 8.5391117,
    "type": "Physiotherapie",
    "address": "",
    "city": "Zürich",
    "phone": "+41 44 291 94 11",
    "website": "https://kinezi.ch"
  },
  {
    "id": 10901081685,
    "name": "Tierarztpraxis am Bahnhof",
    "lat": 47.2602081,
    "lon": 8.8530791,
    "type": "Tierarzt",
    "address": "",
    "city": "Zürich",
    "phone": "",
    "website": ""
  },
  {
    "id": 10967671102,
    "name": "Zahnarztzentrum",
    "lat": 47.3659519,
    "lon": 8.5480884,
    "type": "Zahnarzt",
    "address": "",
    "city": "Zürich",
    "phone": "",
    "website": ""
  },
  {
    "id": 10976288569,
    "name": "Praxis für Tierosteopathie",
    "lat": 47.3397133,
    "lon": 8.6715409,
    "type": "Tierarzt",
    "address": "",
    "city": "Zürich",
    "phone": "",
    "website": ""
  },
  {
    "id": 11006907806,
    "name": "Dr. med. vet. Susanne Meier",
    "lat": 47.4908076,
    "lon": 8.8679949,
    "type": "Tierarzt",
    "address": "",
    "city": "Zürich",
    "phone": "",
    "website": "https://www.tierarztpraxis-schauenberg.ch/"
  },
  {
    "id": 11050855181,
    "name": "Physiotherapie Oberland",
    "lat": 47.3890586,
    "lon": 8.7532707,
    "type": "Physiotherapie",
    "address": "",
    "city": "Zürich",
    "phone": "+41 449 553 344",
    "website": "https://www.physiotherapie-oberland.ch/"
  },
  {
    "id": 11056458992,
    "name": "active physio Niederhasli",
    "lat": 47.4801285,
    "lon": 8.490362,
    "type": "Physiotherapie",
    "address": "",
    "city": "Zürich",
    "phone": "",
    "website": ""
  },
  {
    "id": 11135591880,
    "name": "Ärztehaus und Apotheke Hofwis",
    "lat": 47.5034771,
    "lon": 8.8015298,
    "type": "Apotheke",
    "address": "Hofwis",
    "city": "Zürich",
    "phone": "",
    "website": "https://hofwis-elsau.ch"
  },
  {
    "id": 11145780531,
    "name": "Apotheke Dobler",
    "lat": 47.3000196,
    "lon": 8.6901599,
    "type": "Apotheke",
    "address": "Dorfplatz",
    "city": "Zürich",
    "phone": "",
    "website": ""
  },
  {
    "id": 11179011832,
    "name": "Praxis für Sportphysiotherapie",
    "lat": 47.3228189,
    "lon": 8.548588,
    "type": "Physiotherapie",
    "address": "",
    "city": "Zürich",
    "phone": "+41 43 377 53 54",
    "website": ""
  },
  {
    "id": 11200327798,
    "name": "Physiotherapie Seen",
    "lat": 47.4912694,
    "lon": 8.7653276,
    "type": "Physiotherapie",
    "address": "Etzbergweg",
    "city": "Zürich",
    "phone": "",
    "website": "https://physioseen.ch/"
  },
  {
    "id": 11271575392,
    "name": "PHYSIO Goethezentrum",
    "lat": 47.2409351,
    "lon": 8.724549,
    "type": "Physiotherapie",
    "address": "",
    "city": "Zürich",
    "phone": "",
    "website": ""
  },
  {
    "id": 11274643139,
    "name": "iNovaDental",
    "lat": 47.5052028,
    "lon": 8.5426475,
    "type": "Zahnarzt",
    "address": "",
    "city": "Zürich",
    "phone": "",
    "website": "https://inovadental.ch/"
  },
  {
    "id": 11299507498,
    "name": "Kleintierpraxis am Bahnhof",
    "lat": 47.4293014,
    "lon": 8.6816622,
    "type": "Tierarzt",
    "address": "Tannstrasse",
    "city": "Zürich",
    "phone": "+41 523 430 500",
    "website": "https://tierpraxis.ch/"
  },
  {
    "id": 11324076169,
    "name": "VetTrust",
    "lat": 47.4331735,
    "lon": 8.5660008,
    "type": "Tierarzt",
    "address": "",
    "city": "Zürich",
    "phone": "",
    "website": ""
  },
  {
    "id": 11368479670,
    "name": "Ginsberger",
    "lat": 47.3878122,
    "lon": 8.4853934,
    "type": "Zahnarzt",
    "address": "Badenerstrasse",
    "city": "Zürich",
    "phone": "+41 44 431 31 33",
    "website": "https://www.zahnarzt-ginsberg-zuerich.ch"
  },
  {
    "id": 11389818824,
    "name": "Vet Zentrum",
    "lat": 47.3805942,
    "lon": 8.504668,
    "type": "Tierarzt",
    "address": "",
    "city": "Zürich",
    "phone": "",
    "website": "https://vetzentrum-zurich.ch/"
  },
  {
    "id": 11395863397,
    "name": "Szabo Zahnarzt Zollikon",
    "lat": 47.3391563,
    "lon": 8.5737701,
    "type": "Zahnarzt",
    "address": "Alte Landstrasse",
    "city": "Zürich",
    "phone": "",
    "website": ""
  },
  {
    "id": 11407026346,
    "name": "MBDent",
    "lat": 47.421861,
    "lon": 8.61896,
    "type": "Zahnarzt",
    "address": "Bahnhofstrasse",
    "city": "Zürich",
    "phone": "",
    "website": "https://mbdent.ch/"
  },
  {
    "id": 11407026348,
    "name": "Kieferorthopädie Dietlikon",
    "lat": 47.4225837,
    "lon": 8.6184062,
    "type": "Zahnarzt",
    "address": "Bahnhofstrasse",
    "city": "Zürich",
    "phone": "",
    "website": "https://kfo-dietlikon.ch/"
  },
  {
    "id": 11435628074,
    "name": "Kineo",
    "lat": 47.3933446,
    "lon": 8.5287234,
    "type": "Physiotherapie",
    "address": "",
    "city": "Zürich",
    "phone": "",
    "website": ""
  },
  {
    "id": 11596496631,
    "name": "Zahnarztpraxis Winkler",
    "lat": 47.2646775,
    "lon": 8.6636422,
    "type": "Zahnarzt",
    "address": "Dollikerweg",
    "city": "Zürich",
    "phone": "+41449230800",
    "website": "https://www.zahnarztpraxis-winkler.ch/"
  },
  {
    "id": 11671851390,
    "name": "Gesundheitszentrum Physio-Fit",
    "lat": 47.5080786,
    "lon": 8.5382701,
    "type": "Physiotherapie",
    "address": "",
    "city": "Zürich",
    "phone": "+41 44 861 00 25",
    "website": "https://www.physio-fit.ch/"
  },
  {
    "id": 11684927041,
    "name": "Physio Zentrum",
    "lat": 47.4101085,
    "lon": 8.5470406,
    "type": "Physiotherapie",
    "address": "",
    "city": "Zürich",
    "phone": "",
    "website": ""
  },
  {
    "id": 11687654082,
    "name": "Tierarztpraxis Enge",
    "lat": 47.3548367,
    "lon": 8.5266652,
    "type": "Tierarzt",
    "address": "Brunaustrasse",
    "city": "Zürich",
    "phone": "",
    "website": "https://tierarztpraxis-enge.ch/"
  },
  {
    "id": 11704624799,
    "name": "Reha-4-Health",
    "lat": 47.3960866,
    "lon": 8.479826,
    "type": "Physiotherapie",
    "address": "",
    "city": "Zürich",
    "phone": "",
    "website": "https://www.reha4health.zuerich/"
  },
  {
    "id": 11778686004,
    "name": "Praxis im Sihltor",
    "lat": 47.3108187,
    "lon": 8.5257837,
    "type": "Zahnarzt",
    "address": "",
    "city": "Zürich",
    "phone": "",
    "website": "https://praxis-im-sihltor.ch/"
  },
  {
    "id": 11778686007,
    "name": "TherapieCentrum Sihltal",
    "lat": 47.3109949,
    "lon": 8.5258109,
    "type": "Physiotherapie",
    "address": "",
    "city": "Zürich",
    "phone": "",
    "website": "https://www.tc-sihltal.ch/"
  },
  {
    "id": 11815185021,
    "name": "Physio Sports",
    "lat": 47.4100727,
    "lon": 8.5417186,
    "type": "Physiotherapie",
    "address": "",
    "city": "Zürich",
    "phone": "",
    "website": "https://www.physiosports.ch"
  },
  {
    "id": 11816677553,
    "name": "Physiotherapie am Viadukt",
    "lat": 47.3876246,
    "lon": 8.5242402,
    "type": "Physiotherapie",
    "address": "",
    "city": "Zürich",
    "phone": "",
    "website": "https://physio-viadukt.ch"
  },
  {
    "id": 11836748171,
    "name": "zahnartzzentrum.ch",
    "lat": 47.3775789,
    "lon": 8.5399669,
    "type": "Zahnarzt",
    "address": "Bahnhofplatz",
    "city": "Zürich",
    "phone": "",
    "website": "https://zahnarztzentrum.ch/zuerich/hb"
  },
  {
    "id": 11874989903,
    "name": "Physiotherapie Giessen",
    "lat": 47.4006029,
    "lon": 8.6136083,
    "type": "Physiotherapie",
    "address": "",
    "city": "Zürich",
    "phone": "+41 58 510 57 72",
    "website": "https://www.physiotherapie-giessen.ch"
  },
  {
    "id": 11875022971,
    "name": "Physiotherapie Rotacher",
    "lat": 47.4195427,
    "lon": 8.6134748,
    "type": "Physiotherapie",
    "address": "",
    "city": "Zürich",
    "phone": "+41 58 510 57 54",
    "website": "https://www.physiotherapie-rotacher.ch"
  },
  {
    "id": 11886932857,
    "name": "3 Grad Physiotherapie",
    "lat": 47.4963219,
    "lon": 8.7011205,
    "type": "Physiotherapie",
    "address": "Schlosstalstrasse",
    "city": "Zürich",
    "phone": "+41 52 229 54 34",
    "website": "https://www.3-grad.ch/"
  },
  {
    "id": 11886932858,
    "name": "Physiotherapie Oberwinterthur",
    "lat": 47.507437,
    "lon": 8.7555141,
    "type": "Physiotherapie",
    "address": "Römerstrasse",
    "city": "Zürich",
    "phone": "+41 52 551 34 00",
    "website": "https://www.physiotherapie-oberwinterthur.ch/"
  },
  {
    "id": 11886932859,
    "name": "Physiozentrum",
    "lat": 47.5000913,
    "lon": 8.7245051,
    "type": "Physiotherapie",
    "address": "",
    "city": "Zürich",
    "phone": "+41 52 345 01 01",
    "website": "https://www.physiozentrum.ch/winterthur/"
  },
  {
    "id": 11886932860,
    "name": "Crossmed Physiotherapie",
    "lat": 47.5054746,
    "lon": 8.7181625,
    "type": "Physiotherapie",
    "address": "Wülflingerstrasse",
    "city": "Zürich",
    "phone": "+41 78 798 22 88",
    "website": "https://www.crossmed.ch/"
  },
  {
    "id": 11886932862,
    "name": "Crossmed Physiotherapie",
    "lat": 47.5104463,
    "lon": 8.7616525,
    "type": "Physiotherapie",
    "address": "Hegmattenstrasse",
    "city": "Zürich",
    "phone": "+41 78 798 22 88",
    "website": "https://www.crossmed.ch/"
  },
  {
    "id": 11896631685,
    "name": "physio-therapien bonstetten ag",
    "lat": 47.32634,
    "lon": 8.469204,
    "type": "Physiotherapie",
    "address": "",
    "city": "Zürich",
    "phone": "",
    "website": "https://physio-therapien.ch/"
  },
  {
    "id": 11903338342,
    "name": "Gries",
    "lat": 47.3892134,
    "lon": 8.6857784,
    "type": "Physiotherapie",
    "address": "",
    "city": "Zürich",
    "phone": "",
    "website": ""
  },
  {
    "id": 11903609427,
    "name": "DurDental",
    "lat": 47.458208,
    "lon": 8.7695172,
    "type": "Zahnarzt",
    "address": "",
    "city": "Zürich",
    "phone": "",
    "website": ""
  },
  {
    "id": 11910601479,
    "name": "Hand & Physio Therapie",
    "lat": 47.2806663,
    "lon": 8.4511076,
    "type": "Physiotherapie",
    "address": "",
    "city": "Zürich",
    "phone": "+41 76 567 5260",
    "website": "https://www.hand-physiotherapie-affoltern-albis.ch/"
  },
  {
    "id": 11966073408,
    "name": "Dentilus Zahnarztpraxis am Hegibachplatz",
    "lat": 47.3619652,
    "lon": 8.5611026,
    "type": "Zahnarzt",
    "address": "Forchstrasse",
    "city": "Zürich",
    "phone": "",
    "website": ""
  },
  {
    "id": 11976383186,
    "name": "Physiotherapie Levie",
    "lat": 47.3647609,
    "lon": 8.5644661,
    "type": "Physiotherapie",
    "address": "",
    "city": "Zürich",
    "phone": "+41 78 700 91 97",
    "website": "https://physio-levie.ch/"
  },
  {
    "id": 12002649717,
    "name": "Dr.med.dent. M. Berit Perkuhn",
    "lat": 47.4958838,
    "lon": 8.8660982,
    "type": "Zahnarzt",
    "address": "",
    "city": "Zürich",
    "phone": "",
    "website": ""
  },
  {
    "id": 12037056949,
    "name": "zahnarztzentrum.ch",
    "lat": 47.3830612,
    "lon": 8.6689041,
    "type": "Zahnarzt",
    "address": "Grabenwisstrasse",
    "city": "Zürich",
    "phone": "",
    "website": "https://zahnarztzentrum.ch/"
  },
  {
    "id": 12090984382,
    "name": "Physio Kreis 6",
    "lat": 47.3854792,
    "lon": 8.5429687,
    "type": "Physiotherapie",
    "address": "",
    "city": "Zürich",
    "phone": "",
    "website": "https://physiokreis6.ch"
  },
  {
    "id": 12106890746,
    "name": "Rex Apotheke",
    "lat": 47.4509987,
    "lon": 8.5810015,
    "type": "Apotheke",
    "address": "Schaffhauserstrasse",
    "city": "Zürich",
    "phone": "",
    "website": "https://www.rexapotheke.ch/"
  },
  {
    "id": 12123931002,
    "name": "vorderberg-zahnaerzte.ch",
    "lat": 47.3764188,
    "lon": 8.5591277,
    "type": "Zahnarzt",
    "address": "",
    "city": "Zürich",
    "phone": "",
    "website": ""
  },
  {
    "id": 12157136438,
    "name": "Zahnimplantat Experten",
    "lat": 47.397881,
    "lon": 8.6200751,
    "type": "Zahnarzt",
    "address": "Lindenstrasse",
    "city": "Zürich",
    "phone": "+41 78 311 50 65",
    "website": "https://www.zahnimplantat-experten.ch"
  },
  {
    "id": 12163661491,
    "name": "Cecconi Dental",
    "lat": 47.4222356,
    "lon": 8.619256,
    "type": "Zahnarzt",
    "address": "Säntisstrasse",
    "city": "Zürich",
    "phone": "",
    "website": "https://www.cecconi-dental.ch/"
  },
  {
    "id": 12184714497,
    "name": "physio coach",
    "lat": 47.2297944,
    "lon": 8.6683152,
    "type": "Physiotherapie",
    "address": "",
    "city": "Zürich",
    "phone": "",
    "website": ""
  },
  {
    "id": 12196827628,
    "name": "Physiotherapie Kornhaus",
    "lat": 47.3904314,
    "lon": 8.5361147,
    "type": "Physiotherapie",
    "address": "Kornhausstrasse",
    "city": "Zürich",
    "phone": "",
    "website": "https://physiokornhaus.ch"
  },
  {
    "id": 12260817123,
    "name": "Lakeside",
    "lat": 47.2264485,
    "lon": 8.6772656,
    "type": "Zahnarzt",
    "address": "",
    "city": "Zürich",
    "phone": "",
    "website": ""
  },
  {
    "id": 12265954957,
    "name": "Physiotherapie Rotbuchstrasse",
    "lat": 47.3914711,
    "lon": 8.5374855,
    "type": "Physiotherapie",
    "address": "Rotbuchstrasse",
    "city": "Zürich",
    "phone": "+41 44 363 54 69",
    "website": "https://rotbuchphysio.ch"
  },
  {
    "id": 12292337301,
    "name": "Schotanus Physiotherapie",
    "lat": 47.2524963,
    "lon": 8.7680115,
    "type": "Physiotherapie",
    "address": "Im Zentrum",
    "city": "Zürich",
    "phone": "+41 797 234 434",
    "website": "https://schotanus-physio.ch"
  },
  {
    "id": 12293492204,
    "name": "Cierny Zahnärzte",
    "lat": 47.3885158,
    "lon": 8.485837,
    "type": "Zahnarzt",
    "address": "",
    "city": "Zürich",
    "phone": "",
    "website": "https://cierny-zaz.ch"
  },
  {
    "id": 12357387036,
    "name": "Praxisgemeinschaft Am Untertor",
    "lat": 47.4994143,
    "lon": 8.7243764,
    "type": "Physiotherapie",
    "address": "Stadthausstrasse",
    "city": "Zürich",
    "phone": "",
    "website": "https://www.amuntertor.ch/"
  },
  {
    "id": 12369376363,
    "name": "top caredent",
    "lat": 47.3750645,
    "lon": 8.4910391,
    "type": "Zahnarzt",
    "address": "Fellenbergstrasse",
    "city": "Zürich",
    "phone": "",
    "website": ""
  },
  {
    "id": 12388390898,
    "name": "Getup",
    "lat": 47.3811284,
    "lon": 8.4956505,
    "type": "Physiotherapie",
    "address": "",
    "city": "Zürich",
    "phone": "",
    "website": "https://physio-getup.ch"
  },
  {
    "id": 12441635157,
    "name": "Physiozentrum",
    "lat": 47.3909822,
    "lon": 8.4890149,
    "type": "Physiotherapie",
    "address": "Hohlstrasse",
    "city": "Zürich",
    "phone": "",
    "website": "https://www.physiozentrum.ch/zuerich-altstetten/?utm_source=bing&utm_medium=cpc&utm_campaign=ZH-Physiotherapie%20Standort%20Altstetten&utm_term=physio%20bahnhof%20altstetten&utm_content=Physiotherapie%20Standort%20Altstetten"
  },
  {
    "id": 12463174647,
    "name": "Gabriel Toth",
    "lat": 47.3833812,
    "lon": 8.4996266,
    "type": "Zahnarzt",
    "address": "Badenerstrasse",
    "city": "Zürich",
    "phone": "",
    "website": "https://zahnarzt-toth.ch"
  },
  {
    "id": 12463174648,
    "name": "Letzigrund",
    "lat": 47.383242,
    "lon": 8.4989381,
    "type": "Physiotherapie",
    "address": "",
    "city": "Zürich",
    "phone": "",
    "website": "https://physiotherapie-letzigrund.ch"
  },
  {
    "id": 12509377554,
    "name": "Bestsmile",
    "lat": 47.3492125,
    "lon": 8.7173667,
    "type": "Zahnarzt",
    "address": "",
    "city": "Zürich",
    "phone": "",
    "website": ""
  },
  {
    "id": 12520453133,
    "name": "Zahnarztpraxis Dezelic & Biscioni",
    "lat": 47.3468245,
    "lon": 8.7128978,
    "type": "Zahnarzt",
    "address": "",
    "city": "Zürich",
    "phone": "",
    "website": ""
  },
  {
    "id": 12546601315,
    "name": "Post Apotheke",
    "lat": 47.4854996,
    "lon": 8.764709,
    "type": "Apotheke",
    "address": "Kanzleistrasse",
    "city": "Zürich",
    "phone": "",
    "website": ""
  },
  {
    "id": 12546601317,
    "name": "Kleintierpraxis Dittus",
    "lat": 47.4836232,
    "lon": 8.7601276,
    "type": "Tierarzt",
    "address": "Bollstrasse",
    "city": "Zürich",
    "phone": "",
    "website": "https://www.tierarzt-dittus.ch/"
  },
  {
    "id": 12590487813,
    "name": "Zahnklinik für Kinder und Jugendhilfe",
    "lat": 47.3480185,
    "lon": 8.7158078,
    "type": "Zahnarzt",
    "address": "",
    "city": "Zürich",
    "phone": "",
    "website": ""
  },
  {
    "id": 12603304601,
    "name": "functiomed",
    "lat": 47.3734717,
    "lon": 8.4942936,
    "type": "Physiotherapie",
    "address": "",
    "city": "Zürich",
    "phone": "+41 44 401 15 15",
    "website": "https://functiomed.ch/"
  },
  {
    "id": 12609723490,
    "name": "Physiotherapie Uschter",
    "lat": 47.3544374,
    "lon": 8.7137455,
    "type": "Physiotherapie",
    "address": "",
    "city": "Zürich",
    "phone": "",
    "website": ""
  },
  {
    "id": 12612341471,
    "name": "Goodent Zahnarztpraxis",
    "lat": 47.3500141,
    "lon": 8.7163208,
    "type": "Zahnarzt",
    "address": "Gerichtsstrasse",
    "city": "Zürich",
    "phone": "+41 44 940 08 08",
    "website": "https://www.goodent.ch/"
  },
  {
    "id": 12623419704,
    "name": "Dr. Med. Dent Nathalie Hüls",
    "lat": 47.3494136,
    "lon": 8.7187334,
    "type": "Zahnarzt",
    "address": "",
    "city": "Zürich",
    "phone": "",
    "website": ""
  },
  {
    "id": 12630055041,
    "name": "3B Physiotherapie",
    "lat": 47.425363,
    "lon": 8.5531994,
    "type": "Physiotherapie",
    "address": "",
    "city": "Zürich",
    "phone": "",
    "website": ""
  },
  {
    "id": 12645581326,
    "name": "eulenapotheke",
    "lat": 47.5026302,
    "lon": 8.7678264,
    "type": "Apotheke",
    "address": "Sulzerallee",
    "city": "Zürich",
    "phone": "",
    "website": "https://eulenapotheke.ch"
  },
  {
    "id": 12647715080,
    "name": "Praxis med dent Brunhart",
    "lat": 47.3494379,
    "lon": 8.7163478,
    "type": "Zahnarzt",
    "address": "",
    "city": "Zürich",
    "phone": "",
    "website": ""
  },
  {
    "id": 12649460946,
    "name": "Kleintierpraxis Uetliberg",
    "lat": 47.3561821,
    "lon": 8.5131778,
    "type": "Tierarzt",
    "address": "",
    "city": "Zürich",
    "phone": "",
    "website": "https://kleintierpraxis-uetliberg.ch/"
  },
  {
    "id": 12651957084,
    "name": "Physio am Rank",
    "lat": 47.3800097,
    "lon": 8.4946955,
    "type": "Physiotherapie",
    "address": "Rautistrasse",
    "city": "Zürich",
    "phone": "",
    "website": "https://www.physio-am-rank.ch/"
  },
  {
    "id": 12683842177,
    "name": "Zahnarztpraxis Dr. med. dent. Petra Güttinger",
    "lat": 47.5034937,
    "lon": 8.7640837,
    "type": "Zahnarzt",
    "address": "",
    "city": "Zürich",
    "phone": "",
    "website": ""
  },
  {
    "id": 12686531725,
    "name": "Zahnarztpraxis Schmelzer",
    "lat": 47.4992393,
    "lon": 8.7282542,
    "type": "Zahnarzt",
    "address": "Untere Kirchgasse",
    "city": "Zürich",
    "phone": "",
    "website": "https://www.zahn-aerztin.ch/"
  },
  {
    "id": 12712576452,
    "name": "Fisio Expert",
    "lat": 47.3844277,
    "lon": 8.4925911,
    "type": "Physiotherapie",
    "address": "Buckhauserstrasse",
    "city": "Zürich",
    "phone": "",
    "website": "https://www.fisioexpert.ch/"
  },
  {
    "id": 12719169683,
    "name": "Physio Stäfa",
    "lat": 47.2404286,
    "lon": 8.7151303,
    "type": "Physiotherapie",
    "address": "Seestrasse",
    "city": "Zürich",
    "phone": "",
    "website": "https://www.physiostaefa.ch/"
  },
  {
    "id": 12720328606,
    "name": "Piwko",
    "lat": 47.3687288,
    "lon": 8.5020915,
    "type": "Zahnarzt",
    "address": "",
    "city": "Zürich",
    "phone": "",
    "website": ""
  }
]